~VERSION INFORMATION 
VERS  .    2.0                                     :CWLS Log ASCII Standard - VERSION 2.0
WRAP  .    NO                                      :One Line per Depth step
PROD  .    Schlumberger Technology Corp.           :LAS Producer
PROG  .    Horizon LASWriter 10.1.205256.3100      :LAS Program name and version
SOURCE.    Run5_16.5in-Drilling                    :Run&Pass Information
CREA  .    01/07/2021                              :LAS Creation date {MM/DD/YYYY}
#--------------------------------------------------
~WELL INFORMATION 
#MNEM           .UNIT                      DATA            :DESCRIPTION
#----            ------          --------------            -----------------------------
STRT            .m                   2934.91920            :START DEPTH
STOP            .m                   3810.30480            :STOP DEPTH
STEP            .m                       0.1524            :STEP
NULL            .                       -999.25            :NULL VALUE
COMP            .                BP Development Australia Pty Ltd:COMPANY
WELL            .                    Ironbark-1            :WELL NAME
FLD             .                      Ironbark            :FIELD NAME
RIGN            .                    Ocean Apex            :Rig Name
RIGTYP          .                Semi-Submersible          :Rig Type
SON             .                     20AWA0029            :Service Order Number
SRVC            .                  Schlumberger            :SERVICE COMPANY
DATE            .                    11/27/2020            :LOG DATE(Composite Date for Composite LAP) (MM/DD/YYYY)
CLAB            .                       County:            :County Label
CNTY            .                                          :COUNTY
SLAB            .                        State:            :State/Province Label
STAT            .                Western Australia         :STATE or PROVINCE
PROV            .                Western Australia         :STATE or PROVINCE
CTRY            .                     Australia            :COUNTRY
CONT_REGION     .                   Australasia            :Continent Region
SECT            .                                          :Section
TOWN            .                                          :Township
RANG            .                                          :Range
API             .                                          :API NUMBER
UWI             .                     20AWA0029            :UNIQUE WELL ID
LUL             .                 Portside Deck            :Logging Unit Location
LUN             .                       1010979            :Logging Unit Number
LOC             .                      WA-359-P            :FIELD LOCATION
FL1             .                Northing: 7,881,270.990 m :Field Location Line 1
FL2             .                Easting: 402,902.910 m    :Field Location Line 2
LATI            .deg             19° 9' 34.079" S          :LATITUDE
LONG            .deg             116° 4' 35.795" E         :LONGITUDE
PDAT            .                           MSL            :Local Permanent Datum
LMF             .                            DF            :Logging Measured From
APD             .m                     23.85000            :Elevation of Depth Reference (LMF) Above Permanent Datum
EPD             .m                      0.00000            :Elevation of Permanent Datum (PDAT) above Mean Sea Level
EKB             .m                      -999.25            :Elevation of Kelly Bushing Above Permanent Datum
EDF             .m                     23.85000            :Elevation of Drill Floor Above Permanent Datum
EGL             .m                   -300.95000            :Elevation of Ground Level Above Permanent Datum
ECF             .m                      -999.25            :Elevation of Casing Flange above Permanent Datum
#--------------------------------------------------
~CURVE INFORMATION
#MNEM           .UNIT                  API CODE            :DESCRIPTION
#----            ------          --------------            -----------------------------
DEPT            .m                                         :                                                        Depth Index
ROP5            .m/h                                       :(RT)    (DRILLING_SURFACE)      (6in)                   Rate of penetration averaged over the last 5 ft (1.5 m)
GR              .gAPI                                      :(RM)    (ARC9)                  (6in)                   Gamma Ray
BLKP            .m                                         :(RT)    (DRILLING_SURFACE)      (6in)                   Height of block above rig floor
HKLA            .1000 lbf                                  :(RT)    (DRILLING_SURFACE)      (6in)                   Average Hookload
SWOB            .1000 lbf                                  :(RT)    (DRILLING_SURFACE)      (6in)                   Surface Weight On Bit
SHKL            .                                          :(RM)    (ARC9)                  (6in)                   Tool Shock Level
SHKL            .                                          :(RM)    (SONICVISION9)          (6in)                   Tool Shock Level
SHKRSK          .                                          :(RM)    (TELE900)               (6in)                   Shock Risk
SHOCKS_ACC      .                                          :(RM)    (TELE900)               (6in)                   Total Shocks accumulated over tool lifetime
STOR            .1000 ft.lbf                               :(RT)    (DRILLING_SURFACE)      (6in)                   Surface Torque
VIB_LAT         .gn                                        :(RM)    (TELE900)               (6in)                   Transverse RMS Vibration
VIB_X           .gn                                        :(RM)    (TELE900)               (6in)                   RMS Vibration, X-Axis
CRPM            .c/min                                     :(RM)    (TELE900)               (6in)                   Collar Rotational Speed
RPM             .c/min                                     :(RT)    (DRILLING_SURFACE)      (6in)                   Rotational Speed
STICKNSLIP      .c/min                                     :(RM)    (TELE900)               (6in)                   Stick Slip Indicator
TFLO            .gal/min                                   :(RT)    (DRILLING_SURFACE)      (6in)                   Total flow rate of all active pumps
SPPA            .psi                                       :(RT)    (DRILLING_SURFACE)      (6in)                   Standpipe Pressure
TRPM            .c/min                                     :(RM)    (TELE900)               (6in)                   MWD Turbine Rotation Speed
ECD             .g/cm3                                     :(RM)    (ARC9)                  (6in)                   Equivalent Circulating Density
DHAT            .degC                                      :(RM)    (ARC9)                  (6in)                   Downhole Annulus Temperature
DHAP            .psi                                       :(RM)    (ARC9)                  (6in)                   Downhole Annulus Pressure
#-------------------------------------------------------------
#            DEPT         ROP5           GR         BLKP         HKLA         SWOB         SHKL         SHKL       SHKRSK   SHOCKS_ACC         STOR      VIB_LAT        VIB_X         CRPM          RPM   STICKNSLIP         TFLO         SPPA         TRPM          ECD         DHAT         DHAP 
#                  (DRILLING_)       (ARC9)  (DRILLING_)  (DRILLING_)  (DRILLING_)       (ARC9)  (SONICVISI)    (TELE900)    (TELE900)  (DRILLING_)    (TELE900)    (TELE900)    (TELE900)  (DRILLING_)    (TELE900)  (DRILLING_)  (DRILLING_)    (TELE900)       (ARC9)       (ARC9)       (ARC9) 
#                         (RT)         (RM)         (RT)         (RT)         (RT)         (RM)         (RM)         (RM)         (RM)         (RT)         (RM)         (RM)         (RM)         (RT)         (RM)         (RT)         (RT)         (RM)         (RM)         (RM)         (RM) 
#                        (6in)        (6in)        (6in)        (6in)        (6in)        (6in)        (6in)        (6in)        (6in)        (6in)        (6in)        (6in)        (6in)        (6in)        (6in)        (6in)        (6in)        (6in)        (6in)        (6in)        (6in) 
~ASCII
# ...
       3515.25840     17.72673    130.51490      8.58593    613.29427      6.88924      0.00000      0.00000      0.00000      0.00000     25.16000      0.74949      0.12492    147.00000    124.00000    174.00000   1211.45228   3857.87039   3546.00000      1.31948     67.00000   6590.99923
       3515.41080     17.02521    129.07470      8.52760    605.23218     14.74639      0.00000      0.00000      -999.25      -999.25     15.54000      0.74949      0.12492      -999.25    138.00000      -999.25   1211.45228   3878.05384      -999.25      1.31721     67.00000   6579.99957
       3515.56320     18.62160    136.35930      8.34786    607.85326     12.34304      0.00000      0.00000      -999.25      -999.25     16.85000      0.74949      0.12492      -999.25    162.00000      -999.25   1211.45228   3874.05950      -999.25      1.31976     67.00000   6593.00075
       3515.71560     18.58213    142.47480      8.16055    606.86823     13.70440      0.00000      0.00000      -999.25      -999.25     15.73000      0.74949      0.12492      -999.25    160.00000      -999.25   1211.45228   3882.59352      -999.25      1.31972     67.00000   6593.00075
       3515.86800     18.30407    143.81610      7.94847    612.10465      8.32607      0.00000      0.00000      -999.25      -999.25     17.42000      0.99932      0.12492      -999.25    169.00000      -999.25   1211.45228   3856.09658      -999.25      1.31884     67.00000   6588.99916
       3516.02040     19.75638    139.45060      7.89824    600.76099     17.69828      0.00000      0.00000      0.00000      0.00000     26.24000      0.99932      0.12492    106.00000    136.00000    126.00000   1211.45228   3852.86659   3543.00000      1.31919     67.00000   6590.99923
       3516.17280     18.02026    129.19310      7.75459    608.81580     11.39183      0.00000      -999.25      -999.25      -999.25     15.06000      0.74949      0.12492      -999.25    154.00000      -999.25   1211.45228   3863.93152      -999.25      1.32153     67.00000   6602.99965
       3516.32520     17.07012    127.98360      7.58333    611.46178     15.35375      0.00000      -999.25      -999.25      -999.25     14.74000      0.74949      0.12492      -999.25    139.00000      -999.25   1211.45228   3876.87323      -999.25      1.32068     67.00000   6598.99951
       3516.47760     18.19082    139.34970      7.42584    612.45034      7.10426      0.00000      -999.25      -999.25      -999.25     14.47000      0.74949      0.12492      -999.25    149.00000    144.00000   1216.43774   3857.05818      -999.25      1.32061     67.00000   6598.99951
       3516.63000     19.91815    138.89180      7.27255    608.95866     10.86454      0.00000      0.00000      0.00000      0.00000     20.93000      0.74949      0.12492    126.00000    160.00000      -999.25   1216.43774   3866.13029   3546.00000      1.31937     67.00000   6593.00075
       3516.78240     17.63439    125.39340      7.16491    612.36325      7.63452      0.00000      0.00000      -999.25      -999.25      9.12000      0.74949      0.12492      -999.25    155.00000      -999.25   1211.45228   3862.79297      -999.25      1.32069     67.00000   6600.00027
       3516.93480     18.53138    122.57580      6.90505    611.50059      9.96268      0.00000      0.00000      -999.25      -999.25     19.69000      0.74949      0.12492      -999.25    172.00000      -999.25   1211.45228   3870.59310      -999.25      1.31846     67.00000   6588.99916
       3517.08720     18.23147    127.33540      6.87011    605.51746     14.20559      0.00000      0.00000      0.00000      0.00000     14.48000      0.99932      0.12492    182.00000    150.00000    198.00000   1211.45228   3861.20916   3554.00000      1.32098     67.00000   6602.00034
       3517.23960     16.90493    133.45030      6.71690    609.05368     11.50730      0.00000      0.00000      -999.25      -999.25     17.07000      0.91605      0.12492      -999.25    131.00000      -999.25   1211.45228   3843.86264      -999.25      1.32173     67.00000   6606.00048
       3517.39200     15.28728    141.97530      6.55963    614.18119      6.24287      0.00000      0.00000      -999.25      -999.25      9.41000      0.99932      0.12492      -999.25    162.00000    225.00000   1211.45228   3853.68605      -999.25      1.31988     67.00000   6596.99944
       3517.54440     14.41689    143.14160      6.45688    607.58165     12.23520      0.00000      0.00000      0.00000      0.00000     15.44000      0.99932      0.12492    134.00000    136.00000      -999.25   1211.45228   3866.96571   3534.00000      1.31821     67.00000   6588.99916
       3517.69680     15.52493    136.94330      6.25665    602.92306     17.15906      0.00000      0.00000      -999.25      -999.25     15.34000      0.99932      0.12492      -999.25    151.00000      -999.25   1211.45228   3861.44992      -999.25      1.31856     67.00000   6590.99923
       3517.84920     15.28053    131.49700      6.12087    610.20802      9.41059      0.00000      0.00000      -999.25      -999.25      8.84000      0.87441      0.12492      -999.25    161.00000      -999.25   1211.45228   3854.64910      -999.25      1.32009     67.00000   6598.99951
       3518.00160     15.96175    133.53360      5.94641    607.12661     12.88318      0.00000      0.00000      -999.25      -999.25     12.67000      0.74949      0.12492      -999.25    155.00000    111.00000   1211.45228   3860.32443      -999.25      1.31824     67.00000   6589.99992
       3518.15400     15.35462    135.39510      5.81919    607.07966     13.20270      0.00000      0.00000      0.00000      0.00000     13.33000      0.74949      0.12492    111.00000    154.00000      -999.25   1211.45228   3865.68212   3548.00000      1.31899     67.00000   6594.00006
       3518.30640     16.67177    126.96320      5.62462    607.98443     12.52980      0.00000      0.00000      -999.25      -999.25     14.19000      0.74949      0.12492      -999.25    163.00000      -999.25   1211.45228   3859.28451      -999.25      1.31933     67.00000   6596.00013
       3518.45880     16.20006    122.53810      5.51177    608.04660     11.73132      0.00000      0.00000      -999.25      -999.25     22.38000      0.74949      0.12492      -999.25    152.00000      -999.25   1211.45228   3847.45668      -999.25      1.31947     67.00000   6596.99944
       3518.61120     16.56488    126.92160      5.34870    609.71087     10.47455      0.00000      0.00000      -999.25      -999.25     18.04000      0.74949      0.12492      -999.25    153.00000      -999.25   1211.45228   3842.19326      -999.25      1.32081     67.00000   6604.00041
       3518.76360     16.80958    133.04100      5.19534    610.35242      9.62240      0.00000      0.00000      0.00000      0.00000     25.68000      0.99932      0.12492    133.00000    144.00000    195.00000   1211.45228   3853.26689   3536.00000      1.31976     67.00000   6598.99951
       3518.91600     16.96652    138.48050      5.10673    611.21597      9.25513      0.00000      0.00000      -999.25      -999.25     12.98000      0.87441      0.12492      -999.25    154.00000      -999.25   1211.45228   3878.18728      -999.25      1.31909     67.00000   6596.00013
       3519.06840     18.27292    136.74090      4.93425    606.54658     13.36032      0.00000      0.00000      -999.25      -999.25     23.13000      -999.25      -999.25      -999.25    133.00000    162.00000   1211.45228   3864.53777      -999.25      1.31965     67.00000   6598.99951
       3519.22080     15.42758    132.94190      4.76758    609.84447     10.76510      0.00000      0.00000      0.00000      0.00000     12.69000      0.99932      0.12492    138.00000    151.00000      -999.25   1211.45228   3880.46582   3562.00000      1.31838     67.00000   6593.00075
       3519.37320     14.70702    133.38390      4.63876    609.15950     10.88523      0.00000      0.00000      0.00000      0.00000      7.04000      0.84942      0.12492    109.00000    158.00000    132.00000   1211.45228   3885.67847   3574.00000      1.31832     67.00000   6593.00075
