~VERSION INFORMATION 
VERS  .    2.0                                     :CWLS Log ASCII Standard - VERSION 2.0
WRAP  .    NO                                      :One Line per Depth step
PROD  .    Schlumberger Technology Corp.           :LAS Producer
PROG  .    Horizon LASWriter 10.1.205256.3100      :LAS Program name and version
SOURCE.    Run5_16.5in-Drilling                    :Run&Pass Information
CREA  .    01/07/2021                              :LAS Creation date {MM/DD/YYYY}
#--------------------------------------------------
~WELL INFORMATION 
#MNEM           .UNIT                      DATA            :DESCRIPTION
#----            ------          --------------            -----------------------------
STRT            .m                   2934.91920            :START DEPTH
STOP            .m                   3810.30480            :STOP DEPTH
STEP            .m                       0.1524            :STEP
NULL            .                       -999.25            :NULL VALUE
COMP            .                BP Development Australia Pty Ltd:COMPANY
WELL            .                    Ironbark-1            :WELL NAME
FLD             .                      Ironbark            :FIELD NAME
RIGN            .                    Ocean Apex            :Rig Name
RIGTYP          .                Semi-Submersible          :Rig Type
SON             .                     20AWA0029            :Service Order Number
SRVC            .                  Schlumberger            :SERVICE COMPANY
DATE            .                    11/27/2020            :LOG DATE(Composite Date for Composite LAP) (MM/DD/YYYY)
CLAB            .                       County:            :County Label
CNTY            .                                          :COUNTY
SLAB            .                        State:            :State/Province Label
STAT            .                Western Australia         :STATE or PROVINCE
PROV            .                Western Australia         :STATE or PROVINCE
CTRY            .                     Australia            :COUNTRY
CONT_REGION     .                   Australasia            :Continent Region
SECT            .                                          :Section
TOWN            .                                          :Township
RANG            .                                          :Range
API             .                                          :API NUMBER
UWI             .                     20AWA0029            :UNIQUE WELL ID
LUL             .                 Portside Deck            :Logging Unit Location
LUN             .                       1010979            :Logging Unit Number
LOC             .                      WA-359-P            :FIELD LOCATION
FL1             .                Northing: 7,881,270.990 m :Field Location Line 1
FL2             .                Easting: 402,902.910 m    :Field Location Line 2
LATI            .deg             19° 9' 34.079" S          :LATITUDE
LONG            .deg             116° 4' 35.795" E         :LONGITUDE
PDAT            .                           MSL            :Local Permanent Datum
LMF             .                            DF            :Logging Measured From
APD             .m                     23.85000            :Elevation of Depth Reference (LMF) Above Permanent Datum
EPD             .m                      0.00000            :Elevation of Permanent Datum (PDAT) above Mean Sea Level
EKB             .m                      -999.25            :Elevation of Kelly Bushing Above Permanent Datum
EDF             .m                     23.85000            :Elevation of Drill Floor Above Permanent Datum
EGL             .m                   -300.95000            :Elevation of Ground Level Above Permanent Datum
ECF             .m                      -999.25            :Elevation of Casing Flange above Permanent Datum
#--------------------------------------------------
~CURVE INFORMATION
#MNEM           .UNIT                  API CODE            :DESCRIPTION
#----            ------          --------------            -----------------------------
DEPT            .m                                         :                                                        Depth Index
ROP5            .m/h                                       :(RT)    (DRILLING_SURFACE)      (6in)                   Rate of penetration averaged over the last 5 ft (1.5 m)
GR              .gAPI                                      :(RM)    (ARC9)                  (6in)                   Gamma Ray
BLKP            .m                                         :(RT)    (DRILLING_SURFACE)      (6in)                   Height of block above rig floor
HKLA            .1000 lbf                                  :(RT)    (DRILLING_SURFACE)      (6in)                   Average Hookload
SWOB            .1000 lbf                                  :(RT)    (DRILLING_SURFACE)      (6in)                   Surface Weight On Bit
SHKL            .                                          :(RM)    (ARC9)                  (6in)                   Tool Shock Level
SHKL            .                                          :(RM)    (SONICVISION9)          (6in)                   Tool Shock Level
SHKRSK          .                                          :(RM)    (TELE900)               (6in)                   Shock Risk
SHOCKS_ACC      .                                          :(RM)    (TELE900)               (6in)                   Total Shocks accumulated over tool lifetime
STOR            .1000 ft.lbf                               :(RT)    (DRILLING_SURFACE)      (6in)                   Surface Torque
VIB_LAT         .gn                                        :(RM)    (TELE900)               (6in)                   Transverse RMS Vibration
VIB_X           .gn                                        :(RM)    (TELE900)               (6in)                   RMS Vibration, X-Axis
CRPM            .c/min                                     :(RM)    (TELE900)               (6in)                   Collar Rotational Speed
RPM             .c/min                                     :(RT)    (DRILLING_SURFACE)      (6in)                   Rotational Speed
STICKNSLIP      .c/min                                     :(RM)    (TELE900)               (6in)                   Stick Slip Indicator
TFLO            .gal/min                                   :(RT)    (DRILLING_SURFACE)      (6in)                   Total flow rate of all active pumps
SPPA            .psi                                       :(RT)    (DRILLING_SURFACE)      (6in)                   Standpipe Pressure
TRPM            .c/min                                     :(RM)    (TELE900)               (6in)                   MWD Turbine Rotation Speed
ECD             .g/cm3                                     :(RM)    (ARC9)                  (6in)                   Equivalent Circulating Density
DHAT            .degC                                      :(RM)    (ARC9)                  (6in)                   Downhole Annulus Temperature
DHAP            .psi                                       :(RM)    (ARC9)                  (6in)                   Downhole Annulus Pressure
#-------------------------------------------------------------
#            DEPT         ROP5           GR         BLKP         HKLA         SWOB         SHKL         SHKL       SHKRSK   SHOCKS_ACC         STOR      VIB_LAT        VIB_X         CRPM          RPM   STICKNSLIP         TFLO         SPPA         TRPM          ECD         DHAT         DHAP 
#                  (DRILLING_)       (ARC9)  (DRILLING_)  (DRILLING_)  (DRILLING_)       (ARC9)  (SONICVISI)    (TELE900)    (TELE900)  (DRILLING_)    (TELE900)    (TELE900)    (TELE900)  (DRILLING_)    (TELE900)  (DRILLING_)  (DRILLING_)    (TELE900)       (ARC9)       (ARC9)       (ARC9) 
#                         (RT)         (RM)         (RT)         (RT)         (RT)         (RM)         (RM)         (RM)         (RM)         (RT)         (RM)         (RM)         (RM)         (RT)         (RM)         (RT)         (RT)         (RM)         (RM)         (RM)         (RM) 
#                        (6in)        (6in)        (6in)        (6in)        (6in)        (6in)        (6in)        (6in)        (6in)        (6in)        (6in)        (6in)        (6in)        (6in)        (6in)        (6in)        (6in)        (6in)        (6in)        (6in)        (6in) 
~ASCII
# ...
       3109.87440     21.10349    103.20150     19.15831    566.94009     29.32230      0.00000      0.00000      0.00000      0.00000     14.17000      0.49966      0.12492     90.00000     97.00000     33.00000   1041.94867   2827.26413   2946.00000      1.28986     53.00000   5700.00050
       3110.02680     21.68187     94.55637     19.01475    565.57168     30.33290      0.00000      0.00000      -999.25      -999.25     13.84000      0.24983      0.12492      -999.25     95.00000      -999.25   1041.94867   2839.35738      -999.25      1.28888     53.00000   5696.00036
       3110.17920     21.03391     92.50956     18.78214    570.16171     24.70870      0.00000      0.00000      -999.25      -999.25     15.33000      0.24983      0.12492      -999.25     99.00000      -999.25   1041.94867   2829.98794      -999.25      1.29019     53.00000   5702.00057
       3110.33160     21.90056     98.12825     18.64061    568.11560     27.99924      0.00000      0.00000      -999.25      -999.25     14.76000      0.24983      0.12492      -999.25     96.00000      -999.25   1041.94867   2838.54662      -999.25      1.29034     53.00000   5702.99988
       3110.48400     22.99858    105.11220     18.49821    570.26775     25.27379      0.00000      0.00000      -999.25      -999.25     18.61000      0.24983      0.12492      -999.25     98.00000      -999.25   1041.94867   2836.13174      -999.25      1.28959     53.00000   5700.00050
       3110.63640     23.70818    116.41560     18.33082    569.35129     26.36482      0.00000      0.00000      0.00000      0.00000     15.33000      0.24983      0.12492     98.00000    101.00000     39.00000   1041.94867   2841.17760   2951.00000      1.28955     53.00000   5700.00050
       3110.78880     23.61702    128.60130     18.18113    576.32738     19.98474      0.00000      0.00000      -999.25      -999.25     18.02000      0.24983      0.12492      -999.25     99.00000      -999.25   1041.94867   2837.54296      -999.25      1.28947     53.00000   5700.00050
       3110.94120     22.88622    128.05240     18.04542    569.36870     26.88952      0.00000      0.00000      -999.25      -999.25     14.16000      0.24983      0.12492      -999.25     97.00000      -999.25   1041.94867   2847.68400      -999.25      1.28919     53.00000   5698.99974
       3111.09360     22.56105    120.76180     17.88051    573.49025     22.49132      0.00000      0.00000      -999.25      -999.25     15.04000      0.24983      0.12492      -999.25    101.00000      -999.25   1041.94867   2844.05225      -999.25      1.29026     53.00000   5704.00064
       3111.24600     22.08492    118.53750     17.68012    575.16422     20.82416      0.00000      0.00000      -999.25      -999.25     12.96000      0.24983      0.12492    100.00000    103.00000     39.00000   1041.94867   2847.56216      -999.25      1.29019     53.00000   5704.00064
       3111.39840     21.16384    115.19780     17.59674    574.74181     21.35868      0.00000      0.00000      0.00000      0.00000      9.39000      0.24983      0.12492      -999.25    106.00000      -999.25   1041.94867   2852.73421   2953.00000      1.28877     53.00000   5698.00043
       3111.55080     21.05897    116.84560     17.30458    576.79431     19.91533      0.00000      0.00000      -999.25      -999.25     11.18000      0.24983      0.12492      -999.25    106.00000      -999.25   1041.94867   2857.39717      -999.25      1.29006     53.00000   5704.00064
       3111.70320     21.19328    132.71920     17.29604    573.55881     22.31808      0.00000      0.00000      -999.25      -999.25     14.17000      0.24983      0.12492      -999.25    100.00000      -999.25   1041.94867   2850.24101      -999.25      1.29045     53.00000   5705.99926
       3111.85560     20.90230    151.22870     17.12578    571.64586     23.57019      0.00000      0.00000      -999.25      -999.25     12.39000      0.24983      0.12492      -999.25     98.00000      -999.25   1041.94867   2859.50602      -999.25      1.28925     53.00000   5700.99981
       3112.00800     20.57287    154.66550     16.99200    574.18514     21.55010      0.00000      0.00000      0.00000      0.00000     19.48000      0.24983      0.12492     93.00000     96.00000     48.00000   1041.94867   2847.29820   2957.00000      1.29056     53.00000   5707.00002
       3112.16040     20.28554    139.57780     16.83307    572.27814     23.40037      0.00000      0.00000      -999.25      -999.25     10.86000      0.24983      0.12492      -999.25    103.00000      -999.25   1041.94867   2857.49145      -999.25      1.28890     53.00000   5700.00050
       3112.31280     20.37242    127.33810     16.69720    569.93728     26.83877      0.00000      0.00000      -999.25      -999.25     13.73000      0.24983      0.12492      -999.25     93.00000      -999.25   1041.94867   2860.53434      -999.25      1.29043     53.00000   5707.00002
       3112.46520     19.99532    120.71720     16.56289    570.01554     25.80365      0.00000      0.00000      -999.25      -999.25     16.43000      0.24983      0.12492      -999.25     95.00000      -999.25   1041.94867   2858.19488      -999.25      1.28900     52.63284   5700.99981
       3112.61760     20.73714    112.38010     16.37391    571.48139     24.69060      0.00000      0.00000      -999.25      -999.25     20.02000      0.24983      0.12492      -999.25     97.00000     66.00000   1041.94867   2856.36450      -999.25      1.29075     52.00000   5709.00009
       3112.77000     21.30000    112.42100     16.22865    571.04841     23.42074      0.00000      0.00000      0.00000      0.00000     15.96000      0.24983      0.12492    108.00000     94.00000      -999.25   1041.94867   2856.80252   2957.00000      1.29160     52.00000   5713.00023
       3112.92240     22.14717    116.98950     16.05093    571.06715     24.97467      0.00000      0.00000      -999.25      -999.25     16.41000      0.24983      0.12492      -999.25    103.00000      -999.25   1041.94867   2862.60838      -999.25      1.28904     52.00000   5702.00057
       3113.07480     22.90183    119.24550     15.98766    566.16208     29.83756      0.00000      0.00000      -999.25      -999.25     13.98000      0.24983      0.12492      -999.25     97.00000      -999.25   1041.94867   2860.17610      -999.25      1.29286     53.00000   5719.00044
       3113.22720     22.86714    128.63900     15.75621    564.62943     30.98425      0.00000      0.00000      -999.25      -999.25     13.95000      0.24983      0.12492      -999.25     98.00000      -999.25   1041.94867   2860.95640      -999.25      1.29093     53.00000   5710.79566
       3113.37960     21.83928    143.60440     15.65683    566.32103     27.98742      0.00000      0.00000      -999.25      -999.25     19.22000      0.24983      0.12492      -999.25    100.00000     99.00000   1041.94867   2851.72620      -999.25      1.29111     53.00000   5712.00092
       3113.53200     21.91574    150.75270     15.43812    573.97416     22.01420      0.00000      0.00000      0.00000      0.00000     18.40000      0.24983      0.12492     84.00000    108.00000      -999.25   1041.94867   2853.54352   2964.00000      1.28991     53.00000   5707.00002
       3113.68440     22.26055    151.66840     15.32609    572.42012     23.97781      0.00000      0.00000      -999.25      -999.25     17.78000      0.24983      0.12492      -999.25    103.00000      -999.25   1041.94867   2871.60942      -999.25      1.28962     53.00000   5705.99926
       3113.83680     22.22119    145.18560     15.18944    566.90416     28.75851      0.00000      0.00000      -999.25      -999.25     13.26000      0.24983      0.12492      -999.25    103.00000      -999.25   1041.94867   2862.04998      -999.25      1.28933     53.00000   5704.99995
       3113.98920     21.92239    139.96120     15.00862    573.91794     21.97852      0.00000      0.00000      -999.25      -999.25     17.74000      0.24983      0.12492      -999.25    101.00000      -999.25   1041.94867   2861.10144      -999.25      1.28906     53.00000   5704.00064
