~VERSION INFORMATION 
VERS  .    2.0                                     :CWLS Log ASCII Standard - VERSION 2.0
WRAP  .    NO                                      :One Line per Depth step
PROD  .    Schlumberger Technology Corp.           :LAS Producer
PROG  .    Horizon LASWriter 10.1.205256.3100      :LAS Program name and version
SOURCE.    Run5_16.5in-Drilling                    :Run&Pass Information
CREA  .    01/07/2021                              :LAS Creation date {MM/DD/YYYY}
#--------------------------------------------------
~WELL INFORMATION 
#MNEM           .UNIT                      DATA            :DESCRIPTION
#----            ------          --------------            -----------------------------
STRT            .m                   2934.91920            :START DEPTH
STOP            .m                   3810.30480            :STOP DEPTH
STEP            .m                       0.1524            :STEP
NULL            .                       -999.25            :NULL VALUE
COMP            .                BP Development Australia Pty Ltd:COMPANY
WELL            .                    Ironbark-1            :WELL NAME
FLD             .                      Ironbark            :FIELD NAME
RIGN            .                    Ocean Apex            :Rig Name
RIGTYP          .                Semi-Submersible          :Rig Type
SON             .                     20AWA0029            :Service Order Number
SRVC            .                  Schlumberger            :SERVICE COMPANY
DATE            .                    11/27/2020            :LOG DATE(Composite Date for Composite LAP) (MM/DD/YYYY)
CLAB            .                       County:            :County Label
CNTY            .                                          :COUNTY
SLAB            .                        State:            :State/Province Label
STAT            .                Western Australia         :STATE or PROVINCE
PROV            .                Western Australia         :STATE or PROVINCE
CTRY            .                     Australia            :COUNTRY
CONT_REGION     .                   Australasia            :Continent Region
SECT            .                                          :Section
TOWN            .                                          :Township
RANG            .                                          :Range
API             .                                          :API NUMBER
UWI             .                     20AWA0029            :UNIQUE WELL ID
LUL             .                 Portside Deck            :Logging Unit Location
LUN             .                       1010979            :Logging Unit Number
LOC             .                      WA-359-P            :FIELD LOCATION
FL1             .                Northing: 7,881,270.990 m :Field Location Line 1
FL2             .                Easting: 402,902.910 m    :Field Location Line 2
LATI            .deg             19° 9' 34.079" S          :LATITUDE
LONG            .deg             116° 4' 35.795" E         :LONGITUDE
PDAT            .                           MSL            :Local Permanent Datum
LMF             .                            DF            :Logging Measured From
APD             .m                     23.85000            :Elevation of Depth Reference (LMF) Above Permanent Datum
EPD             .m                      0.00000            :Elevation of Permanent Datum (PDAT) above Mean Sea Level
EKB             .m                      -999.25            :Elevation of Kelly Bushing Above Permanent Datum
EDF             .m                     23.85000            :Elevation of Drill Floor Above Permanent Datum
EGL             .m                   -300.95000            :Elevation of Ground Level Above Permanent Datum
ECF             .m                      -999.25            :Elevation of Casing Flange above Permanent Datum
#--------------------------------------------------
~CURVE INFORMATION
#MNEM           .UNIT                  API CODE            :DESCRIPTION
#----            ------          --------------            -----------------------------
DEPT            .m                                         :                                                        Depth Index
ROP5            .m/h                                       :(RT)    (DRILLING_SURFACE)      (6in)                   Rate of penetration averaged over the last 5 ft (1.5 m)
GR              .gAPI                                      :(RM)    (ARC9)                  (6in)                   Gamma Ray
BLKP            .m                                         :(RT)    (DRILLING_SURFACE)      (6in)                   Height of block above rig floor
HKLA            .1000 lbf                                  :(RT)    (DRILLING_SURFACE)      (6in)                   Average Hookload
SWOB            .1000 lbf                                  :(RT)    (DRILLING_SURFACE)      (6in)                   Surface Weight On Bit
SHKL            .                                          :(RM)    (ARC9)                  (6in)                   Tool Shock Level
SHKL            .                                          :(RM)    (SONICVISION9)          (6in)                   Tool Shock Level
SHKRSK          .                                          :(RM)    (TELE900)               (6in)                   Shock Risk
SHOCKS_ACC      .                                          :(RM)    (TELE900)               (6in)                   Total Shocks accumulated over tool lifetime
STOR            .1000 ft.lbf                               :(RT)    (DRILLING_SURFACE)      (6in)                   Surface Torque
VIB_LAT         .gn                                        :(RM)    (TELE900)               (6in)                   Transverse RMS Vibration
VIB_X           .gn                                        :(RM)    (TELE900)               (6in)                   RMS Vibration, X-Axis
CRPM            .c/min                                     :(RM)    (TELE900)               (6in)                   Collar Rotational Speed
RPM             .c/min                                     :(RT)    (DRILLING_SURFACE)      (6in)                   Rotational Speed
STICKNSLIP      .c/min                                     :(RM)    (TELE900)               (6in)                   Stick Slip Indicator
TFLO            .gal/min                                   :(RT)    (DRILLING_SURFACE)      (6in)                   Total flow rate of all active pumps
SPPA            .psi                                       :(RT)    (DRILLING_SURFACE)      (6in)                   Standpipe Pressure
TRPM            .c/min                                     :(RM)    (TELE900)               (6in)                   MWD Turbine Rotation Speed
ECD             .g/cm3                                     :(RM)    (ARC9)                  (6in)                   Equivalent Circulating Density
DHAT            .degC                                      :(RM)    (ARC9)                  (6in)                   Downhole Annulus Temperature
DHAP            .psi                                       :(RM)    (ARC9)                  (6in)                   Downhole Annulus Pressure
#-------------------------------------------------------------
#            DEPT         ROP5           GR         BLKP         HKLA         SWOB         SHKL         SHKL       SHKRSK   SHOCKS_ACC         STOR      VIB_LAT        VIB_X         CRPM          RPM   STICKNSLIP         TFLO         SPPA         TRPM          ECD         DHAT         DHAP 
#                  (DRILLING_)       (ARC9)  (DRILLING_)  (DRILLING_)  (DRILLING_)       (ARC9)  (SONICVISI)    (TELE900)    (TELE900)  (DRILLING_)    (TELE900)    (TELE900)    (TELE900)  (DRILLING_)    (TELE900)  (DRILLING_)  (DRILLING_)    (TELE900)       (ARC9)       (ARC9)       (ARC9) 
#                         (RT)         (RM)         (RT)         (RT)         (RT)         (RM)         (RM)         (RM)         (RM)         (RT)         (RM)         (RM)         (RM)         (RT)         (RM)         (RT)         (RT)         (RM)         (RM)         (RM)         (RM) 
#                        (6in)        (6in)        (6in)        (6in)        (6in)        (6in)        (6in)        (6in)        (6in)        (6in)        (6in)        (6in)        (6in)        (6in)        (6in)        (6in)        (6in)        (6in)        (6in)        (6in)        (6in) 
~ASCII
# ...
       3690.21360     15.18889    115.67300      0.53221    612.13949     29.48522      0.00000      0.00000      -999.25      -999.25     16.26000      1.24915      0.12492      -999.25    175.00000      -999.25   1191.51046   3843.90325      -999.25      1.32426     73.00000   6944.00078
       3690.36600     14.31571     94.78046     28.25867    641.50638      2.19940      0.00000      0.00000      -999.25      -999.25      -999.25      -999.25      -999.25      -999.25      -999.25      -999.25      -999.25   3922.96623      -999.25      1.32362     73.00000   6940.99995
       3690.51840     14.58371     71.84451     28.11242    637.39256      5.90393      0.00000      0.00000      -999.25      -999.25      8.76000      -999.25      -999.25      -999.25    181.00000      -999.25   1196.49592   3921.05608      -999.25      1.32434     73.00000   6945.00009
       3690.67080     14.68317     72.99458     27.96687    629.86774     13.56535      0.00000      0.00000      -999.25      -999.25     11.15000      1.49898      0.12492      -999.25    181.00000      -999.25   1196.49592   3920.20326      -999.25      1.32430     73.00000   6945.00009
       3690.82320     14.77595     94.10009     27.81035    619.76020     23.74976      0.00000      0.00000      -999.25      -999.25     12.97000      1.24915      0.12492      -999.25    181.00000      -999.25   1196.49592   3922.60798      -999.25      1.32501     73.00000   6949.00023
       3690.97560     13.04925    120.78140     27.67592    620.50471     22.79622      0.00000      0.00000      0.00000      0.00000      8.59000      1.35622      0.12492    203.00000    181.00000    201.00000   1196.49592   3903.37598   3524.00000      1.32379     73.00000   6943.00002
       3691.12800     12.34452    148.37380     27.50483    615.38601     28.41573      0.00000      0.00000      -999.25      -999.25     12.39000      1.24915      0.12492      -999.25    182.00000      -999.25   1196.49592   3891.16525      -999.25      1.32374     73.00000   6943.00002
       3691.28040     14.10441    158.63080     27.37117    606.31774     37.16385      0.00000      0.00000      0.00000      0.00000     15.26000      1.30467      0.12492    142.00000    181.00000     64.50000   1196.49592   3885.87282   3524.00000      1.32408     73.00000   6945.00009
       3691.43280     11.43216    154.74560     27.27377    614.13092     29.15783      0.00000      0.00000      0.00000      0.00000     14.59000      1.24915      0.12492    187.00000    174.00000      -999.25   1196.49592   3872.98912   3514.00000      1.32495     73.00000   6949.99954
       3691.58520     11.48429    158.97730     27.10452    611.98781     31.35317      0.00000      0.00000      -999.25      -999.25     15.64000      1.24915      0.12492      -999.25    174.00000      -999.25   1196.49592   3873.89706      -999.25      1.32529     73.00000   6951.99961
       3691.73760     10.95309    169.67980     26.97132    610.82068     29.51663      0.00000      0.00000      0.00000      0.00000     18.04000      1.24915      0.12492    167.00000    181.00000     99.00000   1196.49592   3865.80975   3503.00000      1.32525     73.00000   6951.99961
       3691.89000     10.43302    171.71040     26.81181    607.94078     34.81910      0.00000      0.00000      -999.25      -999.25     13.55000      1.24915      0.12492      -999.25    178.00000      -999.25   1196.49592   3868.48860      -999.25      1.32422     73.00000   6947.00016
       3692.04240      9.81923    169.74660     26.68006    610.94767     32.41752      0.00000      0.00000      0.00000      0.00000     15.18000      1.24915      0.12492    126.00000    172.00000    132.00000   1196.49592   3861.25847   3523.00000      1.32474     73.00000   6949.99954
       3692.19480      9.01555    170.89270     26.56718    606.10918     33.43822      0.00000      0.00000      -999.25      -999.25     12.68000      1.24915      0.12492      -999.25    183.00000      -999.25   1196.49592   3897.94432      -999.25      1.32545     73.00000   6953.99968
       3692.34720      8.64180    178.30520     26.33436    611.52351     34.16546      0.00000      0.00000      -999.25      -999.25      8.27000      1.24915      0.12492      -999.25    205.00000      -999.25   1196.49592   3893.36692      -999.25      1.32501     73.00000   6951.99961
       3692.49960      8.90659    189.64160     26.21649    608.42139     40.18482      0.00000      0.00000      0.00000      0.00000     11.51000      1.18669      0.12492    154.00000    197.00000    270.00000   1196.49592   3868.30005   3517.00000      1.32477     73.00000   6951.00030
       3692.65200      9.36733    186.42570     26.10138    604.63738     38.90493      0.00000      0.00000      -999.25      -999.25     14.16000      1.12424      0.12492      -999.25    177.00000      -999.25   1196.49592   3885.29703      -999.25      1.32566     73.00000   6955.99975
       3692.80440      8.58227    174.65350     25.93436    611.47744     31.44028      0.00000      0.00000      0.00000      0.00000     16.26000      1.24915      0.12492    157.00000    181.00000     63.00000   1196.49592   3898.17493   3520.00000      1.32390     73.00000   6947.00016
       3692.95680     10.15255    169.43280     25.79356    611.42034     31.99805      0.00000      0.00000      -999.25      -999.25     18.93000      1.24915      0.12492      -999.25    174.00000     87.00000   1196.49592   3886.48343      -999.25      1.32365     73.00000   6945.99940
       3693.10920      9.54889    164.03530     25.64011    614.06765     29.59108      0.00000      0.00000      0.00000      0.00000     12.08000      1.24915      0.12492    165.00000    183.00000      -999.25   1196.49592   3898.33882   3516.00000      1.32397     73.00000   6947.99947
       3693.26160      9.93549    159.26450     25.51848    612.78654     29.87299      0.00000      0.00000      -999.25      -999.25     14.70000      1.24915      0.12492      -999.25    179.00000      -999.25   1191.51046   3888.23839      -999.25      1.32317     72.00000   6944.00078
       3693.41400     10.21578    156.09610     25.36081    609.76819     34.68209      0.00000      0.00000      0.00000      0.00000     11.19000      1.24915      0.12492    193.00000    192.00000    150.00000   1191.51046   3892.47204   3507.00000      1.32520     72.00000   6955.00044
       3693.56640      9.51405    141.47180     25.23850    612.41132     31.80422      0.00000      0.00000      -999.25      -999.25     20.83000      1.24915      0.12492      -999.25    170.00000      -999.25   1191.51046   3877.65934      -999.25      1.32381     72.00000   6947.99947
       3693.71880      9.83977    123.28970     25.07285    617.24561     25.91159      0.00000      0.00000      -999.25      -999.25     19.49000      1.24915      0.12492      -999.25    181.00000    108.00000   1191.51046   3860.62756      -999.25      1.32414     72.00000   6949.99954
       3693.87120     10.11368    114.97160     24.94486    606.06972     37.57360      0.00000      0.00000      0.00000      0.00000     13.27000      1.24915      0.12492    181.00000    181.00000      -999.25   1191.51046   3850.00209   3505.00000      1.32389     72.00000   6949.00023
       3694.02360     10.22893    114.52180     24.81626    607.02675     36.70051      0.00000      0.00000      0.00000      0.00000     18.02000      1.31161      0.12492    184.00000    186.00000    300.00000   1191.51046   3853.34666   3508.00000      1.32346     72.00000   6947.00016
       3694.17600      9.19418    118.26430     24.64425    618.28465     24.75099      0.00000      0.00000      -999.25      -999.25     19.49000      1.24915      0.12492      -999.25    169.00000      -999.25   1191.51046   3854.32422      -999.25      1.32343     72.00000   6947.00016
       3694.32840     10.05061    119.73690     24.48643    615.24734     28.01723      0.00000      0.00000      -999.25      -999.25     13.69000      1.24915      0.12492      -999.25    182.00000      -999.25   1191.51046   3867.26448      -999.25      1.32296     72.00000   6945.00009
