~VERSION INFORMATION 
VERS  .    2.0                                     :CWLS Log ASCII Standard - VERSION 2.0
WRAP  .    NO                                      :One Line per Depth step
PROD  .    Schlumberger Technology Corp.           :LAS Producer
PROG  .    Horizon LASWriter 10.1.205256.3100      :LAS Program name and version
SOURCE.    Run5_16.5in-Drilling                    :Run&Pass Information
CREA  .    01/07/2021                              :LAS Creation date {MM/DD/YYYY}
#--------------------------------------------------
~WELL INFORMATION 
#MNEM           .UNIT                      DATA            :DESCRIPTION
#----            ------          --------------            -----------------------------
STRT            .m                   2934.91920            :START DEPTH
STOP            .m                   3810.30480            :STOP DEPTH
STEP            .m                       0.1524            :STEP
NULL            .                       -999.25            :NULL VALUE
COMP            .                BP Development Australia Pty Ltd:COMPANY
WELL            .                    Ironbark-1            :WELL NAME
FLD             .                      Ironbark            :FIELD NAME
RIGN            .                    Ocean Apex            :Rig Name
RIGTYP          .                Semi-Submersible          :Rig Type
SON             .                     20AWA0029            :Service Order Number
SRVC            .                  Schlumberger            :SERVICE COMPANY
DATE            .                    11/27/2020            :LOG DATE(Composite Date for Composite LAP) (MM/DD/YYYY)
CLAB            .                       County:            :County Label
CNTY            .                                          :COUNTY
SLAB            .                        State:            :State/Province Label
STAT            .                Western Australia         :STATE or PROVINCE
PROV            .                Western Australia         :STATE or PROVINCE
CTRY            .                     Australia            :COUNTRY
CONT_REGION     .                   Australasia            :Continent Region
SECT            .                                          :Section
TOWN            .                                          :Township
RANG            .                                          :Range
API             .                                          :API NUMBER
UWI             .                     20AWA0029            :UNIQUE WELL ID
LUL             .                 Portside Deck            :Logging Unit Location
LUN             .                       1010979            :Logging Unit Number
LOC             .                      WA-359-P            :FIELD LOCATION
FL1             .                Northing: 7,881,270.990 m :Field Location Line 1
FL2             .                Easting: 402,902.910 m    :Field Location Line 2
LATI            .deg             19° 9' 34.079" S          :LATITUDE
LONG            .deg             116° 4' 35.795" E         :LONGITUDE
PDAT            .                           MSL            :Local Permanent Datum
LMF             .                            DF            :Logging Measured From
APD             .m                     23.85000            :Elevation of Depth Reference (LMF) Above Permanent Datum
EPD             .m                      0.00000            :Elevation of Permanent Datum (PDAT) above Mean Sea Level
EKB             .m                      -999.25            :Elevation of Kelly Bushing Above Permanent Datum
EDF             .m                     23.85000            :Elevation of Drill Floor Above Permanent Datum
EGL             .m                   -300.95000            :Elevation of Ground Level Above Permanent Datum
ECF             .m                      -999.25            :Elevation of Casing Flange above Permanent Datum
#--------------------------------------------------
~CURVE INFORMATION
#MNEM           .UNIT                  API CODE            :DESCRIPTION
#----            ------          --------------            -----------------------------
DEPT            .m                                         :                                                        Depth Index
ROP5            .m/h                                       :(RT)    (DRILLING_SURFACE)      (6in)                   Rate of penetration averaged over the last 5 ft (1.5 m)
GR              .gAPI                                      :(RM)    (ARC9)                  (6in)                   Gamma Ray
BLKP            .m                                         :(RT)    (DRILLING_SURFACE)      (6in)                   Height of block above rig floor
HKLA            .1000 lbf                                  :(RT)    (DRILLING_SURFACE)      (6in)                   Average Hookload
SWOB            .1000 lbf                                  :(RT)    (DRILLING_SURFACE)      (6in)                   Surface Weight On Bit
SHKL            .                                          :(RM)    (ARC9)                  (6in)                   Tool Shock Level
SHKL            .                                          :(RM)    (SONICVISION9)          (6in)                   Tool Shock Level
SHKRSK          .                                          :(RM)    (TELE900)               (6in)                   Shock Risk
SHOCKS_ACC      .                                          :(RM)    (TELE900)               (6in)                   Total Shocks accumulated over tool lifetime
STOR            .1000 ft.lbf                               :(RT)    (DRILLING_SURFACE)      (6in)                   Surface Torque
VIB_LAT         .gn                                        :(RM)    (TELE900)               (6in)                   Transverse RMS Vibration
VIB_X           .gn                                        :(RM)    (TELE900)               (6in)                   RMS Vibration, X-Axis
CRPM            .c/min                                     :(RM)    (TELE900)               (6in)                   Collar Rotational Speed
RPM             .c/min                                     :(RT)    (DRILLING_SURFACE)      (6in)                   Rotational Speed
STICKNSLIP      .c/min                                     :(RM)    (TELE900)               (6in)                   Stick Slip Indicator
TFLO            .gal/min                                   :(RT)    (DRILLING_SURFACE)      (6in)                   Total flow rate of all active pumps
SPPA            .psi                                       :(RT)    (DRILLING_SURFACE)      (6in)                   Standpipe Pressure
TRPM            .c/min                                     :(RM)    (TELE900)               (6in)                   MWD Turbine Rotation Speed
ECD             .g/cm3                                     :(RM)    (ARC9)                  (6in)                   Equivalent Circulating Density
DHAT            .degC                                      :(RM)    (ARC9)                  (6in)                   Downhole Annulus Temperature
DHAP            .psi                                       :(RM)    (ARC9)                  (6in)                   Downhole Annulus Pressure
#-------------------------------------------------------------
#            DEPT         ROP5           GR         BLKP         HKLA         SWOB         SHKL         SHKL       SHKRSK   SHOCKS_ACC         STOR      VIB_LAT        VIB_X         CRPM          RPM   STICKNSLIP         TFLO         SPPA         TRPM          ECD         DHAT         DHAP 
#                  (DRILLING_)       (ARC9)  (DRILLING_)  (DRILLING_)  (DRILLING_)       (ARC9)  (SONICVISI)    (TELE900)    (TELE900)  (DRILLING_)    (TELE900)    (TELE900)    (TELE900)  (DRILLING_)    (TELE900)  (DRILLING_)  (DRILLING_)    (TELE900)       (ARC9)       (ARC9)       (ARC9) 
#                         (RT)         (RM)         (RT)         (RT)         (RT)         (RM)         (RM)         (RM)         (RM)         (RT)         (RM)         (RM)         (RM)         (RT)         (RM)         (RT)         (RT)         (RM)         (RM)         (RM)         (RM) 
#                        (6in)        (6in)        (6in)        (6in)        (6in)        (6in)        (6in)        (6in)        (6in)        (6in)        (6in)        (6in)        (6in)        (6in)        (6in)        (6in)        (6in)        (6in)        (6in)        (6in)        (6in) 
~ASCII
# ...
       3050.13360      9.07923    164.84200     23.85966    573.88576     20.91757      0.00000      0.00000      0.00000      0.00000     15.08000      0.24983      0.12492     79.00000     82.00000     60.00000   1046.93386   2823.45399   2978.00000      1.28539     52.00000   5570.99958
       3050.28600      9.14816    165.87960     23.73543    573.16573     22.18371      0.00000      0.00000      -999.25      -999.25      9.10000      0.24983      0.08328      -999.25     81.00000     81.00000   1046.93386   2832.32595      -999.25      1.28532     52.00000   5570.99958
       3050.43840      8.50035    160.06090     23.54624    577.42594     17.77202      0.00000      0.00000      0.00000      0.00000     12.33000      0.24983      0.12492     88.00000     76.00000      -999.25   1046.93386   2820.10507   2974.00000      1.28593     52.00000   5574.00041
       3050.59080      8.82012    148.41720     23.41503    573.20739     21.58668      0.00000      0.00000      -999.25      -999.25     12.38000      0.24983      0.12492      -999.25     82.00000     84.00000   1046.93386   2820.67652      -999.25      1.28657     52.00000   5576.99979
       3050.74320      8.64488    144.24980     23.34655    565.45903     29.03034      0.00000      0.00000      0.00000      0.00000     14.74000      0.24983      0.12492     89.00000     68.00000      -999.25   1046.93386   2823.52651   2982.00000      1.28627     52.00000   5576.00048
       3050.89560      8.20991    141.50340     23.06503    575.37696     19.62819      0.00000      0.00000      0.00000      0.00000     13.25000      0.24983      0.12492     40.00000     81.00000     96.00000   1046.93386   2811.44922   2970.00000      1.28667     52.00000   5578.00055
       3051.04800      8.20122    141.66470     22.92876    571.34008     23.96694      0.00000      0.00000      -999.25      -999.25     11.46000      0.24983      0.06246      -999.25     85.00000      -999.25   1046.93386   2821.43507      -999.25      1.28546     52.00000   5572.99965
       3051.20040      8.37391    150.95900     22.78681    569.36011     25.47810      0.00000      0.00000      -999.25      -999.25     13.84000      0.24983      0.12492      -999.25     77.00000     24.00000   1046.93386   2814.50371      -999.25      1.28678     52.00000   5578.99986
       3051.35280      8.70976    153.50540     22.59678    578.34416     16.74278      0.00000      0.00000      0.00000      0.00000     13.83000      0.24983      0.12492     78.00000     80.00000      -999.25   1046.93386   2815.81340   2968.00000      1.28532     52.00000   5572.99965
       3051.50520      8.64007    151.85710     22.45360    573.22679     21.08816      0.00000      0.00000      -999.25      -999.25     13.25000      0.24983      0.12492      -999.25     83.00000      -999.25   1046.93386   2812.59647      -999.25      1.28664     52.00000   5578.99986
       3051.65760      9.16012    152.61220     22.30828    570.53495     23.86848      0.00000      0.00000      0.00000      0.00000     15.03000      0.24983      0.12492     84.00000     78.00000     33.00000   1046.93386   2812.51234   2964.00000      1.28660     52.00000   5578.99986
       3051.81000      9.40893    143.62290     22.12439    570.83169     24.26511      0.00000      0.00000      -999.25      -999.25     15.04000      0.24983      0.06246      -999.25     77.00000      -999.25   1046.93386   2812.15410      -999.25      1.28628     52.00000   5578.00055
       3051.96240      9.92216    131.14840     21.90928    569.73688     24.85716      0.00000      0.00000      0.00000      0.00000     17.41000      0.24983      0.12492     95.00000     76.00000     39.00000   1046.93386   2807.99007   2965.00000      1.28621     52.00000   5578.00055
       3052.11480      9.56249    134.54930     21.83259    575.91092     18.42456      0.00000      0.00000      -999.25      -999.25     14.74000      0.24983      0.12492      -999.25     81.00000      -999.25   1046.93386   2806.37870      -999.25      1.28547     52.00000   5574.99972
       3052.26720     10.06580    148.56110     21.67408    565.77715     28.90774      0.00000      0.00000      0.00000      0.00000     15.62000      0.24983      0.12492     95.00000     78.00000     36.00000   1046.93386   2806.23366   2958.00000      1.28701     52.00000   5582.00069
       3052.41960     10.69402    149.75000     21.47078    576.10779     18.04554      0.00000      0.00000      -999.25      -999.25     13.88000      0.24983      0.12492      -999.25     81.00000      -999.25   1046.93386   2812.45723      -999.25      1.28558     52.00000   5576.00048
       3052.57200     11.08448    137.12280     21.33704    565.37261     29.75775      0.00000      0.00000      0.00000      0.00000     15.33000      0.24983      0.12492     78.00000     78.00000     21.00000   1046.93386   2814.21654   2964.00000      1.28643     52.00000   5580.00062
       3052.72440     10.42349    126.39520     21.20199    570.06801     25.11627      0.00000      0.00000      -999.25      -999.25     14.18000      0.24983      0.12492      -999.25     82.00000      -999.25   1046.93386   2819.43064      -999.25      1.28661     52.00000   5580.99993
       3052.87680     10.39383    121.55800     21.02408    577.38603     17.48190      0.00000      0.00000      0.00000      0.00000     17.12000      0.24983      0.12492     84.00000     73.00000     30.00000   1046.93386   2813.16211   2970.00000      1.28653     52.00000   5580.99993
       3053.02920     10.40994    122.50120     20.92301    571.14321     23.88781      0.00000      0.00000      -999.25      -999.25     15.04000      0.24983      0.12492      -999.25     78.00000      -999.25   1046.93386   2810.47747      -999.25      1.28623     52.00000   5580.00062
       3053.18160     10.25737    129.16570     20.73321    566.33977     28.32640      0.00000      0.00000      -999.25      -999.25     16.55000      0.24983      0.12492      -999.25     78.00000      -999.25   1046.93386   2809.90602      -999.25      1.28594     52.00000   5578.99986
       3053.33400     10.18150    136.68070     20.52807    577.54411     18.79911      0.00000      0.00000      0.00000      0.00000     16.55000      0.24983      0.12492     93.00000     80.00000     81.00000   1046.93386   2815.27531   2960.00000      1.28633     52.00000   5580.99993
       3053.48640     10.42916    143.24040     20.41495    561.73608     33.22772      0.00000      0.00000      -999.25      -999.25     14.17000      0.24983      0.12492      -999.25     79.00000      -999.25   1046.93386   2816.11363      -999.25      1.28603     52.00000   5580.00062
       3053.63880     10.92538    154.40110     20.23428    560.23275     34.62966      0.00000      0.00000      0.00000      0.00000     15.61000      0.24983      0.12492     69.00000     76.00000     24.00000   1046.93386   2813.54066   2979.00000      1.28692     52.00000   5583.99931
       3053.79120      9.70513    163.06390     20.12209    566.75777     27.82871      0.00000      0.00000      -999.25      -999.25     12.96000      0.24983      0.12492      -999.25     77.00000      -999.25   1046.93386   2814.52692      -999.25      1.28752     52.00000   5587.00015
       3053.94360     10.02811    157.61400     19.89601    580.51880     16.02791      0.00000      0.00000      -999.25      -999.25     12.96000      0.24983      0.12492      -999.25     81.00000     54.00000   1046.93386   2811.60151      -999.25      1.28630     52.00000   5582.00069
       3054.09600      9.44452    150.85890     19.75100    575.15540     19.59167      0.00000      0.00000      0.00000      0.00000     13.54000      0.24983      0.12492     84.00000     78.00000      -999.25   1046.93386   2806.69198   2968.00000      1.28600     52.00000   5580.99993
       3054.24840     10.67577    153.01910     19.62730    563.40652     31.38166      0.00000      0.00000      -999.25      -999.25     12.05000      0.24983      0.12492      -999.25     78.00000     69.00000   1046.93386   2817.20867      -999.25      1.28779     52.00000   5589.00022
