~VERSION INFORMATION 
VERS  .    2.0                                     :CWLS Log ASCII Standard - VERSION 2.0
WRAP  .    NO                                      :One Line per Depth step
PROD  .    Schlumberger Technology Corp.           :LAS Producer
PROG  .    Horizon LASWriter 10.1.205256.3100      :LAS Program name and version
SOURCE.    Run5_16.5in-Drilling                    :Run&Pass Information
CREA  .    01/07/2021                              :LAS Creation date {MM/DD/YYYY}
#--------------------------------------------------
~WELL INFORMATION 
#MNEM           .UNIT                      DATA            :DESCRIPTION
#----            ------          --------------            -----------------------------
STRT            .m                   2934.91920            :START DEPTH
STOP            .m                   3810.30480            :STOP DEPTH
STEP            .m                       0.1524            :STEP
NULL            .                       -999.25            :NULL VALUE
COMP            .                BP Development Australia Pty Ltd:COMPANY
WELL            .                    Ironbark-1            :WELL NAME
FLD             .                      Ironbark            :FIELD NAME
RIGN            .                    Ocean Apex            :Rig Name
RIGTYP          .                Semi-Submersible          :Rig Type
SON             .                     20AWA0029            :Service Order Number
SRVC            .                  Schlumberger            :SERVICE COMPANY
DATE            .                    11/27/2020            :LOG DATE(Composite Date for Composite LAP) (MM/DD/YYYY)
CLAB            .                       County:            :County Label
CNTY            .                                          :COUNTY
SLAB            .                        State:            :State/Province Label
STAT            .                Western Australia         :STATE or PROVINCE
PROV            .                Western Australia         :STATE or PROVINCE
CTRY            .                     Australia            :COUNTRY
CONT_REGION     .                   Australasia            :Continent Region
SECT            .                                          :Section
TOWN            .                                          :Township
RANG            .                                          :Range
API             .                                          :API NUMBER
UWI             .                     20AWA0029            :UNIQUE WELL ID
LUL             .                 Portside Deck            :Logging Unit Location
LUN             .                       1010979            :Logging Unit Number
LOC             .                      WA-359-P            :FIELD LOCATION
FL1             .                Northing: 7,881,270.990 m :Field Location Line 1
FL2             .                Easting: 402,902.910 m    :Field Location Line 2
LATI            .deg             19° 9' 34.079" S          :LATITUDE
LONG            .deg             116° 4' 35.795" E         :LONGITUDE
PDAT            .                           MSL            :Local Permanent Datum
LMF             .                            DF            :Logging Measured From
APD             .m                     23.85000            :Elevation of Depth Reference (LMF) Above Permanent Datum
EPD             .m                      0.00000            :Elevation of Permanent Datum (PDAT) above Mean Sea Level
EKB             .m                      -999.25            :Elevation of Kelly Bushing Above Permanent Datum
EDF             .m                     23.85000            :Elevation of Drill Floor Above Permanent Datum
EGL             .m                   -300.95000            :Elevation of Ground Level Above Permanent Datum
ECF             .m                      -999.25            :Elevation of Casing Flange above Permanent Datum
#--------------------------------------------------
~CURVE INFORMATION
#MNEM           .UNIT                  API CODE            :DESCRIPTION
#----            ------          --------------            -----------------------------
DEPT            .m                                         :                                                        Depth Index
ROP5            .m/h                                       :(RT)    (DRILLING_SURFACE)      (6in)                   Rate of penetration averaged over the last 5 ft (1.5 m)
GR              .gAPI                                      :(RM)    (ARC9)                  (6in)                   Gamma Ray
BLKP            .m                                         :(RT)    (DRILLING_SURFACE)      (6in)                   Height of block above rig floor
HKLA            .1000 lbf                                  :(RT)    (DRILLING_SURFACE)      (6in)                   Average Hookload
SWOB            .1000 lbf                                  :(RT)    (DRILLING_SURFACE)      (6in)                   Surface Weight On Bit
SHKL            .                                          :(RM)    (ARC9)                  (6in)                   Tool Shock Level
SHKL            .                                          :(RM)    (SONICVISION9)          (6in)                   Tool Shock Level
SHKRSK          .                                          :(RM)    (TELE900)               (6in)                   Shock Risk
SHOCKS_ACC      .                                          :(RM)    (TELE900)               (6in)                   Total Shocks accumulated over tool lifetime
STOR            .1000 ft.lbf                               :(RT)    (DRILLING_SURFACE)      (6in)                   Surface Torque
VIB_LAT         .gn                                        :(RM)    (TELE900)               (6in)                   Transverse RMS Vibration
VIB_X           .gn                                        :(RM)    (TELE900)               (6in)                   RMS Vibration, X-Axis
CRPM            .c/min                                     :(RM)    (TELE900)               (6in)                   Collar Rotational Speed
RPM             .c/min                                     :(RT)    (DRILLING_SURFACE)      (6in)                   Rotational Speed
STICKNSLIP      .c/min                                     :(RM)    (TELE900)               (6in)                   Stick Slip Indicator
TFLO            .gal/min                                   :(RT)    (DRILLING_SURFACE)      (6in)                   Total flow rate of all active pumps
SPPA            .psi                                       :(RT)    (DRILLING_SURFACE)      (6in)                   Standpipe Pressure
TRPM            .c/min                                     :(RM)    (TELE900)               (6in)                   MWD Turbine Rotation Speed
ECD             .g/cm3                                     :(RM)    (ARC9)                  (6in)                   Equivalent Circulating Density
DHAT            .degC                                      :(RM)    (ARC9)                  (6in)                   Downhole Annulus Temperature
DHAP            .psi                                       :(RM)    (ARC9)                  (6in)                   Downhole Annulus Pressure
#-------------------------------------------------------------
#            DEPT         ROP5           GR         BLKP         HKLA         SWOB         SHKL         SHKL       SHKRSK   SHOCKS_ACC         STOR      VIB_LAT        VIB_X         CRPM          RPM   STICKNSLIP         TFLO         SPPA         TRPM          ECD         DHAT         DHAP 
#                  (DRILLING_)       (ARC9)  (DRILLING_)  (DRILLING_)  (DRILLING_)       (ARC9)  (SONICVISI)    (TELE900)    (TELE900)  (DRILLING_)    (TELE900)    (TELE900)    (TELE900)  (DRILLING_)    (TELE900)  (DRILLING_)  (DRILLING_)    (TELE900)       (ARC9)       (ARC9)       (ARC9) 
#                         (RT)         (RM)         (RT)         (RT)         (RT)         (RM)         (RM)         (RM)         (RM)         (RT)         (RM)         (RM)         (RM)         (RT)         (RM)         (RT)         (RT)         (RM)         (RM)         (RM)         (RM) 
#                        (6in)        (6in)        (6in)        (6in)        (6in)        (6in)        (6in)        (6in)        (6in)        (6in)        (6in)        (6in)        (6in)        (6in)        (6in)        (6in)        (6in)        (6in)        (6in)        (6in)        (6in) 
~ASCII
# ...
       2994.66000    248.49650    111.54950     22.31779    584.87756     11.09863      0.00000      -999.25      -999.25      -999.25      7.27000      0.24983      0.12492      -999.25     79.00000      -999.25    897.37207   2205.81369      -999.25      1.28220     48.00000   5456.00061
       2994.81240    172.57240    115.46530     22.21595    584.50983      9.39632      0.00000      0.00000      -999.25      -999.25      6.17000      -999.25      -999.25      -999.25     79.00000      -999.25    897.37207   2218.34350      -999.25      1.28182     48.00000   5454.62275
       2994.96480    159.27640    123.29700     22.05767    588.91687      4.63963      0.00000      -999.25      -999.25      -999.25      -999.25      -999.25      -999.25      -999.25      -999.25      -999.25      -999.25   2212.64206      -999.25      1.28138     48.00000   5453.02008
       2995.11720    150.51140    129.57170     21.89578    589.42857      5.32076      0.00000      -999.25      -999.25      -999.25      6.11000      -999.25      -999.25      -999.25     79.00000      -999.25    897.37207   2210.14161      -999.25      1.28094     48.00000   5451.41887
       2995.26960    143.58940    134.28960     21.76580    586.97041      6.57090      0.00000      0.00000      -999.25      -999.25      6.12000      0.24983      0.00000      -999.25     79.00000     99.00000    897.37207   2217.55594      -999.25      1.28054     48.00000   5450.00040
       2995.42200    137.30600    136.64850     21.64409    590.07254      3.27384      0.00000      0.00000      -999.25      -999.25      5.25000      -999.25      -999.25      -999.25     79.00000      -999.25    897.37207   2207.58170      -999.25      1.28101     48.00000   5452.27169
       2995.57440    130.12360    140.13970     21.46534    589.64660      4.76579      0.00000      -999.25      -999.25      -999.25      -999.25      -999.25      -999.25      -999.25      -999.25      -999.25      -999.25   2209.26703      -999.25      1.28142     48.26312   5454.31237
       2995.72680    124.65180    147.12210     21.30614    588.53525      5.42337      0.00000      -999.25      -999.25      -999.25      5.54000      -999.25      -999.25      -999.25     79.00000      -999.25    892.38661   2214.06198      -999.25      1.28183     48.45127   5456.35305
       2995.87920    121.84190    150.61330     21.15828    585.88331      7.86897      0.00000      0.00000      -999.25      -999.25      5.83000      -999.25      -999.25      -999.25     79.00000      -999.25    897.37207   2216.03595      -999.25      1.28225     48.63942   5458.39373
       2996.03160    119.89330    152.35890     21.00613    590.41624      3.10790      0.00000      -999.25      -999.25      -999.25      -999.25      0.24983      0.00000     76.00000      -999.25      -999.25      -999.25   2206.46926      -999.25      1.28278     48.82756   5461.00006
       2996.18400    120.19740    155.85010     20.81764    590.05799      4.53918      0.00000      -999.25      0.00000      0.00000      5.83000      -999.25      -999.25      -999.25     79.00000      -999.25    897.37207   2208.86818   2476.00000      1.28247     49.00000   5459.91083
       2996.33640    145.45850    159.43570     20.65636    587.95125      5.91159      0.00000      -999.25      -999.25      -999.25      5.86000      -999.25      -999.25      -999.25     79.00000      -999.25    897.37207   2216.92938      -999.25      1.28206     49.00000   5458.40534
       2996.48880    152.17900    163.11560     20.53712    587.57867      6.56868      0.00000      0.00000      -999.25      -999.25      -999.25      -999.25      -999.25      -999.25      -999.25      -999.25      -999.25   2222.49593      -999.25      1.28164     49.00000   5456.90129
       2996.64120    157.21630    166.55960     20.38114    589.55577      4.48044      0.00000      -999.25      -999.25      -999.25      5.57000      -999.25      -999.25      -999.25     79.00000      -999.25    897.37207   2210.36207      -999.25      1.28122     49.00000   5455.39580
       2996.79360    160.57050    169.76780     20.24318    591.89091      1.77042      0.00000      -999.25      -999.25      -999.25      5.84000      0.24983      0.00000      -999.25     79.00000      -999.25    897.37207   2203.91949      -999.25      1.28080     49.00000   5453.89031
       2996.94600    164.46430    169.95650     20.09371    586.93051      7.39583      0.00000      -999.25      -999.25      -999.25      -999.25      -999.25      -999.25      -999.25      -999.25      -999.25      -999.25   2216.57694      -999.25      1.28055     49.00000   5452.99978
       2997.09840    172.91940    167.12580     19.93934    587.13245      6.37991      0.00000      -999.25      -999.25      -999.25      5.25000      -999.25      -999.25      -999.25     79.00000      -999.25    892.38661   2220.31746      -999.25      1.28046     49.00000   5452.99978
       2997.25080    181.68010    166.04070     19.84931    588.66907      5.20724      0.00000      0.00000      -999.25      -999.25      -999.25      -999.25      -999.25      -999.25      -999.25      -999.25      -999.25   2221.29501      -999.25      1.28039     49.00000   5452.99978
       2997.40320    186.88660    165.09710     19.66825    589.52932      3.95332      0.00000      -999.25      -999.25      -999.25      5.68000      -999.25      -999.25      -999.25     79.00000      -999.25    897.37207   2208.52589      -999.25      1.28033     49.00000   5452.99978
       2997.55560    191.77220    162.21920     19.48566    592.48858      1.27084      0.00000      -999.25      -999.25      -999.25      -999.25      -999.25      -999.25      -999.25      -999.25      -999.25      -999.25   2203.51049      -999.25      1.28026     49.00000   5452.99978
       2997.70800    202.48360    158.11470     19.27952    590.11729      3.29829      0.00000      -999.25      -999.25      -999.25      5.83000      -999.25      -999.25      -999.25     79.00000      -999.25    897.37207   2212.33168      -999.25      1.28091     49.00000   5456.01076
       2997.86040    213.54910    153.11380     19.15215    586.53301      7.63247      0.00000      -999.25      -999.25      -999.25      -999.25      -999.25      -999.25      -999.25      -999.25      -999.25      -999.25   2225.69981      -999.25      1.28158     49.00000   5459.17404
       2998.01280    221.22560    148.72620     19.02209    584.79599      6.86125      0.00000      -999.25      -999.25      -999.25      -999.25      0.24983      0.00000      -999.25      -999.25      -999.25      -999.25   2224.08989      -999.25      1.28226     49.00000   5462.33731
       2998.16520    228.94570    144.95190     18.87929    588.73587      5.36671      0.00000      0.00000      -999.25      -999.25      5.25000      -999.25      -999.25      -999.25     79.00000      -999.25    897.37207   2217.50663      -999.25      1.28304     49.00000   5465.99951
       2998.31760    237.82330    141.17760     18.73574    590.84085      3.02934      0.00000      -999.25      -999.25      -999.25      -999.25      -999.25      -999.25      -999.25      -999.25      -999.25      -999.25   2209.40772      -999.25      1.28345     49.00000   5467.97783
       2998.47000    242.93310    137.40340     18.55690    592.17729      1.25853      0.00000      -999.25      -999.25      -999.25      5.23000      -999.25      -999.25      -999.25     79.00000      -999.25    897.37207   2202.97095      -999.25      1.28394     49.00000   5470.32889
       2998.62240    240.81790    135.37470     18.38758    591.04367      2.44009      0.00000      -999.25      -999.25      -999.25      -999.25      -999.25      -999.25      -999.25      -999.25      -999.25      -999.25   2209.90230      -999.25      1.28449     49.00000   5473.00048
       2998.77480    238.11690    133.15730     18.25867    586.69924      6.98861      0.00000      -999.25      -999.25      -999.25      5.96000      -999.25      -999.25      -999.25     79.00000      -999.25    897.37207   2223.21676      -999.25      1.28421     49.00000   5472.05049
