~VERSION INFORMATION 
VERS  .    2.0                                     :CWLS Log ASCII Standard - VERSION 2.0
WRAP  .    NO                                      :One Line per Depth step
PROD  .    Schlumberger Technology Corp.           :LAS Producer
PROG  .    Horizon LASWriter 10.1.205256.3100      :LAS Program name and version
SOURCE.    Run5_16.5in-Drilling                    :Run&Pass Information
CREA  .    01/07/2021                              :LAS Creation date {MM/DD/YYYY}
#--------------------------------------------------
~WELL INFORMATION 
#MNEM           .UNIT                      DATA            :DESCRIPTION
#----            ------          --------------            -----------------------------
STRT            .m                   2934.91920            :START DEPTH
STOP            .m                   3810.30480            :STOP DEPTH
STEP            .m                       0.1524            :STEP
NULL            .                       -999.25            :NULL VALUE
COMP            .                BP Development Australia Pty Ltd:COMPANY
WELL            .                    Ironbark-1            :WELL NAME
FLD             .                      Ironbark            :FIELD NAME
RIGN            .                    Ocean Apex            :Rig Name
RIGTYP          .                Semi-Submersible          :Rig Type
SON             .                     20AWA0029            :Service Order Number
SRVC            .                  Schlumberger            :SERVICE COMPANY
DATE            .                    11/27/2020            :LOG DATE(Composite Date for Composite LAP) (MM/DD/YYYY)
CLAB            .                       County:            :County Label
CNTY            .                                          :COUNTY
SLAB            .                        State:            :State/Province Label
STAT            .                Western Australia         :STATE or PROVINCE
PROV            .                Western Australia         :STATE or PROVINCE
CTRY            .                     Australia            :COUNTRY
CONT_REGION     .                   Australasia            :Continent Region
SECT            .                                          :Section
TOWN            .                                          :Township
RANG            .                                          :Range
API             .                                          :API NUMBER
UWI             .                     20AWA0029            :UNIQUE WELL ID
LUL             .                 Portside Deck            :Logging Unit Location
LUN             .                       1010979            :Logging Unit Number
LOC             .                      WA-359-P            :FIELD LOCATION
FL1             .                Northing: 7,881,270.990 m :Field Location Line 1
FL2             .                Easting: 402,902.910 m    :Field Location Line 2
LATI            .deg             19° 9' 34.079" S          :LATITUDE
LONG            .deg             116° 4' 35.795" E         :LONGITUDE
PDAT            .                           MSL            :Local Permanent Datum
LMF             .                            DF            :Logging Measured From
APD             .m                     23.85000            :Elevation of Depth Reference (LMF) Above Permanent Datum
EPD             .m                      0.00000            :Elevation of Permanent Datum (PDAT) above Mean Sea Level
EKB             .m                      -999.25            :Elevation of Kelly Bushing Above Permanent Datum
EDF             .m                     23.85000            :Elevation of Drill Floor Above Permanent Datum
EGL             .m                   -300.95000            :Elevation of Ground Level Above Permanent Datum
ECF             .m                      -999.25            :Elevation of Casing Flange above Permanent Datum
#--------------------------------------------------
~CURVE INFORMATION
#MNEM           .UNIT                  API CODE            :DESCRIPTION
#----            ------          --------------            -----------------------------
DEPT            .m                                         :                                                        Depth Index
ROP5            .m/h                                       :(RT)    (DRILLING_SURFACE)      (6in)                   Rate of penetration averaged over the last 5 ft (1.5 m)
GR              .gAPI                                      :(RM)    (ARC9)                  (6in)                   Gamma Ray
BLKP            .m                                         :(RT)    (DRILLING_SURFACE)      (6in)                   Height of block above rig floor
HKLA            .1000 lbf                                  :(RT)    (DRILLING_SURFACE)      (6in)                   Average Hookload
SWOB            .1000 lbf                                  :(RT)    (DRILLING_SURFACE)      (6in)                   Surface Weight On Bit
SHKL            .                                          :(RM)    (ARC9)                  (6in)                   Tool Shock Level
SHKL            .                                          :(RM)    (SONICVISION9)          (6in)                   Tool Shock Level
SHKRSK          .                                          :(RM)    (TELE900)               (6in)                   Shock Risk
SHOCKS_ACC      .                                          :(RM)    (TELE900)               (6in)                   Total Shocks accumulated over tool lifetime
STOR            .1000 ft.lbf                               :(RT)    (DRILLING_SURFACE)      (6in)                   Surface Torque
VIB_LAT         .gn                                        :(RM)    (TELE900)               (6in)                   Transverse RMS Vibration
VIB_X           .gn                                        :(RM)    (TELE900)               (6in)                   RMS Vibration, X-Axis
CRPM            .c/min                                     :(RM)    (TELE900)               (6in)                   Collar Rotational Speed
RPM             .c/min                                     :(RT)    (DRILLING_SURFACE)      (6in)                   Rotational Speed
STICKNSLIP      .c/min                                     :(RM)    (TELE900)               (6in)                   Stick Slip Indicator
TFLO            .gal/min                                   :(RT)    (DRILLING_SURFACE)      (6in)                   Total flow rate of all active pumps
SPPA            .psi                                       :(RT)    (DRILLING_SURFACE)      (6in)                   Standpipe Pressure
TRPM            .c/min                                     :(RM)    (TELE900)               (6in)                   MWD Turbine Rotation Speed
ECD             .g/cm3                                     :(RM)    (ARC9)                  (6in)                   Equivalent Circulating Density
DHAT            .degC                                      :(RM)    (ARC9)                  (6in)                   Downhole Annulus Temperature
DHAP            .psi                                       :(RM)    (ARC9)                  (6in)                   Downhole Annulus Pressure
#-------------------------------------------------------------
#            DEPT         ROP5           GR         BLKP         HKLA         SWOB         SHKL         SHKL       SHKRSK   SHOCKS_ACC         STOR      VIB_LAT        VIB_X         CRPM          RPM   STICKNSLIP         TFLO         SPPA         TRPM          ECD         DHAT         DHAP 
#                  (DRILLING_)       (ARC9)  (DRILLING_)  (DRILLING_)  (DRILLING_)       (ARC9)  (SONICVISI)    (TELE900)    (TELE900)  (DRILLING_)    (TELE900)    (TELE900)    (TELE900)  (DRILLING_)    (TELE900)  (DRILLING_)  (DRILLING_)    (TELE900)       (ARC9)       (ARC9)       (ARC9) 
#                         (RT)         (RM)         (RT)         (RT)         (RT)         (RM)         (RM)         (RM)         (RM)         (RT)         (RM)         (RM)         (RM)         (RT)         (RM)         (RT)         (RT)         (RM)         (RM)         (RM)         (RM) 
#                        (6in)        (6in)        (6in)        (6in)        (6in)        (6in)        (6in)        (6in)        (6in)        (6in)        (6in)        (6in)        (6in)        (6in)        (6in)        (6in)        (6in)        (6in)        (6in)        (6in)        (6in) 
~ASCII
# ...
       3745.68720      9.46215    140.60860     28.26553    636.89255      7.46150      0.00000      0.00000      0.00000      0.00000     11.49000      1.24915      0.12492    192.00000    182.00000     42.00000   1211.45228   4002.75294   3571.00000      1.32193     73.00000   7035.99966
       3745.83960     10.09041    139.15450     28.04550    632.21257     12.30876      0.00000      0.00000      -999.25      -999.25     13.28000      1.24915      0.12492      -999.25    182.00000      -999.25   1211.45228   3992.55678      -999.25      1.32282     73.00000   7040.99912
       3745.99200     10.90374    139.83420     27.95272    624.01976     20.32114      0.00000      0.00000      -999.25      -999.25     14.78000      1.49898      0.12492      -999.25    181.00000      -999.25   1211.45228   3988.59435      -999.25      1.32276     73.00000   7040.99912
       3746.14440     11.57817    142.43240     27.80435    620.80938     23.51799      0.00000      0.00000      -999.25      -999.25     25.34000      1.62390      0.12492      -999.25    181.00000      -999.25   1211.45228   3989.41382      -999.25      1.32120     73.00000   7033.00028
       3746.29680     11.52532    131.93820     27.63898    624.66417     20.07187      0.00000      0.00000      0.00000      0.00000     11.48000      1.49898      0.37475    162.00000    184.00000    381.00000   1211.45228   3978.57369   3563.00000      1.32343     73.00000   7045.00071
       3746.44920     12.59062    121.05190     27.48572    625.31762     19.38561      0.00000      0.00000      -999.25      -999.25     12.68000      1.49898      0.62458      -999.25    185.00000      -999.25   1211.45228   3972.53287      -999.25      1.32374     73.00000   7047.00078
       3746.60160     13.69973    118.17640     27.31367    620.91851     24.08288      0.00000      0.00000      -999.25      -999.25     24.23000      1.41571      0.16655      -999.25    188.00000      -999.25   1211.45228   3964.45717      -999.25      1.32142     73.00000   7035.00035
       3746.75400     13.20779    118.60550     27.16188    623.97809     22.60003      0.00000      0.00000      -999.25      -999.25     17.49000      1.49898      0.12492      -999.25    193.00000    129.00000   1211.45228   3957.13712      -999.25      1.32119     73.00000   7033.99959
       3746.90640     17.19040    123.51400     26.93401    620.58099     24.38767      0.00000      0.00000      0.00000      0.00000     22.66000      1.49898      0.12492    210.00000    180.00000      -999.25   1211.45228   3940.45198   3552.00000      1.32227     73.00000   7039.99981
       3747.05880     14.74719    128.91270     26.85551    621.07129     24.91523      0.00000      0.00000      -999.25      -999.25     11.78000      1.49898      0.16655      -999.25    188.00000      -999.25   1216.43774   3968.36014      -999.25      1.32165     73.00000   7037.00042
       3747.21120     15.97987    123.99040     26.64503    617.61577     23.61883      0.00000      0.00000      0.00000      0.00000     19.50000      1.49898      0.12492    218.00000    187.00000     66.00000   1216.43774   3935.04642   3555.00000      1.32327     73.00000   7046.00002
       3747.36360     12.62604    117.35280     26.57283    621.39736     21.54131      0.00000      0.00000      -999.25      -999.25     13.88000      1.58226      0.33311    130.00000    191.00000    162.00000   1216.43774   3943.10907      -999.25      1.32287     73.00000   7043.99995
       3747.51600     12.41799    115.32950     26.43587    620.04041     25.10701      0.00000      0.00000      0.00000      0.00000     12.54000      1.49898      0.74949      -999.25    181.00000      -999.25   1216.43774   3905.76765   3566.00000      1.32354     73.00000   7048.00009
       3747.66840     12.97894    106.97850     26.24643    623.03495     21.58777      0.00000      0.00000      -999.25      -999.25     22.92000      1.49898      0.12492      -999.25    165.00000      -999.25   1216.43774   3895.96600      -999.25      1.32200     73.00000   7039.99981
       3747.82080     13.14420     96.42204     26.11879    616.67043     27.74837      0.00000      0.00000      -999.25      -999.25     26.01000      1.62390      0.12492      -999.25    150.00000      -999.25   1216.43774   3892.34586      -999.25      1.32157     73.00000   7037.99973
       3747.97320     12.95125     94.73650     25.95807    628.88293     16.13677      0.00000      0.00000      -999.25      -999.25     23.13000      -999.25      -999.25      -999.25    160.00000      -999.25   1216.43774   3888.96068      -999.25      1.32263     73.00000   7043.99995
       3748.12560     13.26518    102.12630     25.73587    625.63596     19.22129      0.00000      0.00000      -999.25      -999.25      8.54000      1.49898      0.12492      -999.25    204.00000      -999.25   1211.45228   3891.38136      -999.25      1.32125     73.00000   7037.00042
       3748.27800     15.08727    108.34720     25.57764    619.34221     25.88597      0.00000      0.00000      -999.25      -999.25     16.94000      1.24915      0.12492      -999.25    211.00000    219.00000   1216.43774   3895.81516      -999.25      1.32271     73.00000   7045.00071
       3748.43040     15.82465    109.78100     25.51343    616.07121     28.81889      0.00000      0.00000      0.00000      0.00000     13.87000      1.49898      0.12492    195.00000    194.00000      -999.25   1211.45228   3861.19755   3549.00000      1.32397     73.00000   7052.00023
       3748.58280     18.72864    107.90840     25.28455    623.93973     20.09049      0.00000      0.00000      -999.25      -999.25     15.05000      1.41571      0.12492      -999.25    182.00000      -999.25   1211.45228   3885.29557      -999.25      1.32203     73.00000   7041.99988
       3748.73520     16.54833    107.52270     25.20404    624.22479     19.99650      0.00000      0.00000      -999.25      -999.25     12.98000      1.24915      0.12492      -999.25    180.00000      -999.25   1216.43774   3901.06988      -999.25      1.32255     73.00000   7045.00071
       3748.88760     22.60403    114.05810     25.07756    618.07675     27.91857      0.00000      0.00000      -999.25      -999.25     12.66000      1.49898      0.12492      -999.25    187.00000    312.00000   1216.43774   3942.68846      -999.25      1.32156     73.00000   7039.99981
       3749.04000     22.77520    120.57120     24.84146    625.23208     19.49552      0.00000      0.00000      0.00000      0.00000     21.17000      1.24915      0.12492    198.00000    169.00000      -999.25   1216.43774   3904.34628   3559.00000      1.32169     73.00000   7040.99912
       3749.19240     20.44102    122.67760     24.70808    624.43775     19.97893      0.00000      0.00000      -999.25      -999.25     17.15000      1.37407      0.12492      -999.25    193.00000      -999.25   1216.43774   3893.42929      -999.25      1.32352     73.00000   7050.99947
       3749.34480     19.84970    121.75480     24.53331    626.30220     18.52547      0.00000      0.00000      -999.25      -999.25     14.29000      1.24915      0.12492      -999.25    181.00000    108.00000   1221.42293   3936.64619      -999.25      1.32233     73.00000   7045.00071
       3749.49720     18.33761    117.67190     24.38944    621.83057     22.96941      0.00000      0.00000      0.00000      0.00000     11.85000      1.24915      0.12492    151.00000    197.00000      -999.25   1221.42293   3960.60932   3578.00000      1.32397     73.00000   7054.00030
       3749.64960     17.50176    113.57520     24.20932    629.58268     15.62405      0.00000      0.00000      -999.25      -999.25     13.55000      -999.25      -999.25      -999.25    181.00000      -999.25   1216.43774   3941.98648      -999.25      1.32241     73.00000   7046.00002
       3749.80200     17.23305    112.59810     24.05435    624.05283     20.46881      0.00000      0.00000      0.00000      0.00000     14.18000      1.24915      0.12492    176.00000    182.00000    120.00000   1216.43774   3940.79281   3574.00000      1.32162     73.00000   7041.99988
