~VERSION INFORMATION 
VERS  .    2.0                                     :CWLS Log ASCII Standard - VERSION 2.0
WRAP  .    NO                                      :One Line per Depth step
PROD  .    Schlumberger Technology Corp.           :LAS Producer
PROG  .    Horizon LASWriter 10.1.205256.3100      :LAS Program name and version
SOURCE.    Run5_16.5in-Drilling                    :Run&Pass Information
CREA  .    01/07/2021                              :LAS Creation date {MM/DD/YYYY}
#--------------------------------------------------
~WELL INFORMATION 
#MNEM           .UNIT                      DATA            :DESCRIPTION
#----            ------          --------------            -----------------------------
STRT            .m                   2934.91920            :START DEPTH
STOP            .m                   3810.30480            :STOP DEPTH
STEP            .m                       0.1524            :STEP
NULL            .                       -999.25            :NULL VALUE
COMP            .                BP Development Australia Pty Ltd:COMPANY
WELL            .                    Ironbark-1            :WELL NAME
FLD             .                      Ironbark            :FIELD NAME
RIGN            .                    Ocean Apex            :Rig Name
RIGTYP          .                Semi-Submersible          :Rig Type
SON             .                     20AWA0029            :Service Order Number
SRVC            .                  Schlumberger            :SERVICE COMPANY
DATE            .                    11/27/2020            :LOG DATE(Composite Date for Composite LAP) (MM/DD/YYYY)
CLAB            .                       County:            :County Label
CNTY            .                                          :COUNTY
SLAB            .                        State:            :State/Province Label
STAT            .                Western Australia         :STATE or PROVINCE
PROV            .                Western Australia         :STATE or PROVINCE
CTRY            .                     Australia            :COUNTRY
CONT_REGION     .                   Australasia            :Continent Region
SECT            .                                          :Section
TOWN            .                                          :Township
RANG            .                                          :Range
API             .                                          :API NUMBER
UWI             .                     20AWA0029            :UNIQUE WELL ID
LUL             .                 Portside Deck            :Logging Unit Location
LUN             .                       1010979            :Logging Unit Number
LOC             .                      WA-359-P            :FIELD LOCATION
FL1             .                Northing: 7,881,270.990 m :Field Location Line 1
FL2             .                Easting: 402,902.910 m    :Field Location Line 2
LATI            .deg             19° 9' 34.079" S          :LATITUDE
LONG            .deg             116° 4' 35.795" E         :LONGITUDE
PDAT            .                           MSL            :Local Permanent Datum
LMF             .                            DF            :Logging Measured From
APD             .m                     23.85000            :Elevation of Depth Reference (LMF) Above Permanent Datum
EPD             .m                      0.00000            :Elevation of Permanent Datum (PDAT) above Mean Sea Level
EKB             .m                      -999.25            :Elevation of Kelly Bushing Above Permanent Datum
EDF             .m                     23.85000            :Elevation of Drill Floor Above Permanent Datum
EGL             .m                   -300.95000            :Elevation of Ground Level Above Permanent Datum
ECF             .m                      -999.25            :Elevation of Casing Flange above Permanent Datum
#--------------------------------------------------
~CURVE INFORMATION
#MNEM           .UNIT                  API CODE            :DESCRIPTION
#----            ------          --------------            -----------------------------
DEPT            .m                                         :                                                        Depth Index
ROP5            .m/h                                       :(RT)    (DRILLING_SURFACE)      (6in)                   Rate of penetration averaged over the last 5 ft (1.5 m)
GR              .gAPI                                      :(RM)    (ARC9)                  (6in)                   Gamma Ray
BLKP            .m                                         :(RT)    (DRILLING_SURFACE)      (6in)                   Height of block above rig floor
HKLA            .1000 lbf                                  :(RT)    (DRILLING_SURFACE)      (6in)                   Average Hookload
SWOB            .1000 lbf                                  :(RT)    (DRILLING_SURFACE)      (6in)                   Surface Weight On Bit
SHKL            .                                          :(RM)    (ARC9)                  (6in)                   Tool Shock Level
SHKL            .                                          :(RM)    (SONICVISION9)          (6in)                   Tool Shock Level
SHKRSK          .                                          :(RM)    (TELE900)               (6in)                   Shock Risk
SHOCKS_ACC      .                                          :(RM)    (TELE900)               (6in)                   Total Shocks accumulated over tool lifetime
STOR            .1000 ft.lbf                               :(RT)    (DRILLING_SURFACE)      (6in)                   Surface Torque
VIB_LAT         .gn                                        :(RM)    (TELE900)               (6in)                   Transverse RMS Vibration
VIB_X           .gn                                        :(RM)    (TELE900)               (6in)                   RMS Vibration, X-Axis
CRPM            .c/min                                     :(RM)    (TELE900)               (6in)                   Collar Rotational Speed
RPM             .c/min                                     :(RT)    (DRILLING_SURFACE)      (6in)                   Rotational Speed
STICKNSLIP      .c/min                                     :(RM)    (TELE900)               (6in)                   Stick Slip Indicator
TFLO            .gal/min                                   :(RT)    (DRILLING_SURFACE)      (6in)                   Total flow rate of all active pumps
SPPA            .psi                                       :(RT)    (DRILLING_SURFACE)      (6in)                   Standpipe Pressure
TRPM            .c/min                                     :(RM)    (TELE900)               (6in)                   MWD Turbine Rotation Speed
ECD             .g/cm3                                     :(RM)    (ARC9)                  (6in)                   Equivalent Circulating Density
DHAT            .degC                                      :(RM)    (ARC9)                  (6in)                   Downhole Annulus Temperature
DHAP            .psi                                       :(RM)    (ARC9)                  (6in)                   Downhole Annulus Pressure
#-------------------------------------------------------------
#            DEPT         ROP5           GR         BLKP         HKLA         SWOB         SHKL         SHKL       SHKRSK   SHOCKS_ACC         STOR      VIB_LAT        VIB_X         CRPM          RPM   STICKNSLIP         TFLO         SPPA         TRPM          ECD         DHAT         DHAP 
#                  (DRILLING_)       (ARC9)  (DRILLING_)  (DRILLING_)  (DRILLING_)       (ARC9)  (SONICVISI)    (TELE900)    (TELE900)  (DRILLING_)    (TELE900)    (TELE900)    (TELE900)  (DRILLING_)    (TELE900)  (DRILLING_)  (DRILLING_)    (TELE900)       (ARC9)       (ARC9)       (ARC9) 
#                         (RT)         (RM)         (RT)         (RT)         (RT)         (RM)         (RM)         (RM)         (RM)         (RT)         (RM)         (RM)         (RM)         (RT)         (RM)         (RT)         (RT)         (RM)         (RM)         (RM)         (RM) 
#                        (6in)        (6in)        (6in)        (6in)        (6in)        (6in)        (6in)        (6in)        (6in)        (6in)        (6in)        (6in)        (6in)        (6in)        (6in)        (6in)        (6in)        (6in)        (6in)        (6in)        (6in) 
~ASCII
# ...
       3165.34800     36.90669    123.46220     21.24325    577.97048     18.57222      0.00000      0.00000      -999.25      -999.25     21.17000      0.49966      0.12492      -999.25    126.00000      -999.25   1201.48137   3636.79662      -999.25      1.29323     57.00000   5816.99954
       3165.50040     36.01616    126.53710     21.10982    573.89237     23.09228      0.00000      0.00000      -999.25      -999.25     19.48000      0.49966      0.12492      -999.25    120.00000    120.00000   1201.48137   3637.44058      -999.25      1.29319     57.00000   5816.99954
       3165.65280     28.29497    119.94270     20.90660    576.92659     28.67949      0.00000      0.00000      0.00000      0.00000     12.05000      0.56212      0.12492    110.00000    128.00000      -999.25   1196.49592   3641.52630   3483.00000      1.29378     57.00000   5820.00037
       3165.80520     22.34319    118.34540     20.78451    573.53280     25.07805      0.00000      0.00000      -999.25      -999.25     10.89000      0.62458      0.12492      -999.25    131.00000      -999.25   1196.49592   3642.71126      -999.25      1.29442     57.00000   5822.99975
       3165.95760     22.10585    133.62950     20.65721    569.77744     27.67306      0.00000      0.00000      -999.25      -999.25     17.28000      0.74949      0.12492      -999.25    141.00000    117.00000   1201.48137   3648.56788      -999.25      1.29411     57.00000   5822.00044
       3166.11000     22.13862    160.90280     20.52607    568.42535     27.79582      0.00000      0.00000      0.00000      0.00000     20.30000      0.49966      0.12492    122.00000    132.00000      -999.25   1201.48137   3646.57941   3487.00000      1.29360     57.00000   5820.00037
       3166.26240     21.75690    185.93490     20.36043    566.45067     30.15970      0.00000      0.00000      -999.25      -999.25     22.85000      0.49966      0.12492      -999.25    130.00000      -999.25   1201.48137   3641.31164      -999.25      1.29397     57.00000   5822.00044
       3166.41480     21.27176    191.87890     20.17883    574.53568     22.20635      0.00000      0.00000      -999.25      -999.25     21.72000      0.49966      0.12492      -999.25    132.00000      -999.25   1201.48137   3637.12150      -999.25      1.29371     57.00000   5820.99968
       3166.56720     20.36010    180.80720     20.07377    573.36106     23.30956      0.00000      0.00000      -999.25      -999.25     17.73000      0.49966      0.12492      -999.25    127.00000      -999.25   1201.48137   3636.48624      -999.25      1.29341     57.00000   5820.00037
       3166.71960     20.54608    167.26690     20.01841    564.61620     31.97953      0.00000      0.00000      -999.25      -999.25     21.70000      0.49966      0.12492      -999.25    131.00000      -999.25   1201.48137   3638.61104      -999.25      1.29356     57.00000   5820.99968
       3166.87200     20.42331    154.18360     19.62193    576.14880     20.73466      0.00000      0.00000      -999.25      -999.25     21.71000      0.49966      0.12492      -999.25    133.00000      -999.25   1201.48137   3644.44881      -999.25      1.29375     57.00000   5822.00044
       3167.02440     20.12144    137.28910     19.61848    578.23393     18.75416      0.00000      0.00000      0.00000      0.00000     21.16000      0.49966      0.12492    123.00000    128.00000     93.00000   1201.48137   3639.65821   3484.00000      1.29458     57.00000   5826.00058
       3167.17680     23.89831    122.66180     19.44862    579.18104     17.80433      0.00000      0.00000      -999.25      -999.25     18.94000      -999.25      -999.25      -999.25    134.00000      -999.25   1201.48137   3642.24714      -999.25      1.29361     57.00000   5822.00044
       3167.32920     30.34493    118.72290     19.32132    571.21971     25.30726      0.00000      0.00000      -999.25      -999.25     20.56000      0.49966      0.12492      -999.25    126.00000      -999.25   1201.48137   3636.50509      -999.25      1.29377     57.00000   5822.99975
       3167.48160     30.56281    120.91210     19.16664    573.71578     23.33110      0.00000      0.00000      -999.25      -999.25     23.66000      0.49966      0.12492      -999.25    119.00000      -999.25   1196.49592   3640.27607      -999.25      1.29415     57.00000   5824.99982
       3167.63400     31.39758    121.94930     19.00591    568.79484     28.07309      0.00000      0.00000      -999.25      -999.25     21.72000      0.49966      0.12492      -999.25    132.00000      -999.25   1196.49592   3641.54080      -999.25      1.29478     57.00000   5827.99920
       3167.78640     31.76195    126.52700     18.87577    565.40722     31.34737      0.00000      0.00000      -999.25      -999.25     20.57000      0.49966      0.12492      -999.25    129.00000      -999.25   1196.49592   3634.12212      -999.25      1.29472     57.00000   5827.99920
       3167.93880     32.46838    140.94140     18.69149    566.92576     29.87764      0.00000      0.00000      -999.25      -999.25     21.48000      0.49966      0.12492      -999.25    128.00000      -999.25   1196.49592   3638.31806      -999.25      1.29396     57.00000   5824.99982
       3168.09120     33.03258    156.06170     18.55882    568.38280     28.53785      0.00000      0.00000      -999.25      -999.25     23.67000      0.49966      0.12492      -999.25    127.00000     45.00000   1196.49592   3635.43761      -999.25      1.29458     57.00000   5827.99920
       3168.24360     32.41716    158.79300     18.40644    564.83115     32.07918      0.00000      0.00000      0.00000      0.00000     22.58000      0.49966      0.12492    125.00000    128.00000      -999.25   1196.49592   3637.71471   3476.00000      1.29406     57.00000   5826.00058
       3168.39600     32.02773    147.36540     18.25751    567.63433     29.27836      0.00000      0.00000      -999.25      -999.25     20.85000      0.24983      0.12492      -999.25    129.00000      -999.25   1196.49592   3639.34638      -999.25      1.29381     57.00000   5824.99982
       3168.54840     32.11284    135.39510     18.10123    570.50805     26.53742      0.00000      0.00000      -999.25      -999.25     21.71000      0.24983      0.12492      -999.25    130.00000      -999.25   1196.49592   3635.97280      -999.25      1.29439     57.00000   5827.99920
       3168.70080     31.14520    137.28910     17.90138    575.60977     22.39520      0.00000      0.00000      -999.25      -999.25     20.30000      0.24983      0.12492      -999.25    135.00000      -999.25   1196.49592   3628.76008      -999.25      1.29480     57.00000   5829.99927
       3168.85320     30.96762    148.72960     17.76058    573.08438     24.46655      0.00000      0.00000      -999.25      -999.25     20.30000      0.24983      0.12492      -999.25    131.00000      -999.25   1191.51046   3640.88378      -999.25      1.29403     57.00000   5826.99989
       3169.00560     30.68043    155.74550     17.70276    563.94930     32.32025      0.00000      0.00000      -999.25      -999.25     18.90000      0.24983      0.12492      -999.25    126.00000     90.00000   1191.51046   3637.23173      -999.25      1.29422     57.00000   5827.99920
       3169.15800     28.09342    155.00450     17.49524    567.44716     28.68578      0.00000      0.00000      0.00000      0.00000     15.93000      0.24983      0.12492    135.00000    135.00000      -999.25   1191.51046   3643.49301   3478.00000      1.29436     57.00000   5828.99996
       3169.31040     26.33237    158.73570     17.33804    567.98552     28.17541      0.00000      0.00000      -999.25      -999.25     14.75000      0.24983      0.12492      -999.25    128.00000      -999.25   1191.51046   3643.46255      -999.25      1.29384     57.00000   5826.99989
       3169.46280     25.48644    160.92470     17.09241    580.73397     17.44823      0.00000      0.00000      -999.25      -999.25     19.22000      -999.25      -999.25      -999.25    136.00000      -999.25   1201.48137   3645.72224      -999.25      1.29400     57.00000   5827.99920
