~VERSION INFORMATION 
VERS  .    2.0                                     :CWLS Log ASCII Standard - VERSION 2.0
WRAP  .    NO                                      :One Line per Depth step
PROD  .    Schlumberger Technology Corp.           :LAS Producer
PROG  .    Horizon LASWriter 10.1.205256.3100      :LAS Program name and version
SOURCE.    Run5_16.5in-Drilling                    :Run&Pass Information
CREA  .    01/07/2021                              :LAS Creation date {MM/DD/YYYY}
#--------------------------------------------------
~WELL INFORMATION 
#MNEM           .UNIT                      DATA            :DESCRIPTION
#----            ------          --------------            -----------------------------
STRT            .m                   2934.91920            :START DEPTH
STOP            .m                   3810.30480            :STOP DEPTH
STEP            .m                       0.1524            :STEP
NULL            .                       -999.25            :NULL VALUE
COMP            .                BP Development Australia Pty Ltd:COMPANY
WELL            .                    Ironbark-1            :WELL NAME
FLD             .                      Ironbark            :FIELD NAME
RIGN            .                    Ocean Apex            :Rig Name
RIGTYP          .                Semi-Submersible          :Rig Type
SON             .                     20AWA0029            :Service Order Number
SRVC            .                  Schlumberger            :SERVICE COMPANY
DATE            .                    11/27/2020            :LOG DATE(Composite Date for Composite LAP) (MM/DD/YYYY)
CLAB            .                       County:            :County Label
CNTY            .                                          :COUNTY
SLAB            .                        State:            :State/Province Label
STAT            .                Western Australia         :STATE or PROVINCE
PROV            .                Western Australia         :STATE or PROVINCE
CTRY            .                     Australia            :COUNTRY
CONT_REGION     .                   Australasia            :Continent Region
SECT            .                                          :Section
TOWN            .                                          :Township
RANG            .                                          :Range
API             .                                          :API NUMBER
UWI             .                     20AWA0029            :UNIQUE WELL ID
LUL             .                 Portside Deck            :Logging Unit Location
LUN             .                       1010979            :Logging Unit Number
LOC             .                      WA-359-P            :FIELD LOCATION
FL1             .                Northing: 7,881,270.990 m :Field Location Line 1
FL2             .                Easting: 402,902.910 m    :Field Location Line 2
LATI            .deg             19° 9' 34.079" S          :LATITUDE
LONG            .deg             116° 4' 35.795" E         :LONGITUDE
PDAT            .                           MSL            :Local Permanent Datum
LMF             .                            DF            :Logging Measured From
APD             .m                     23.85000            :Elevation of Depth Reference (LMF) Above Permanent Datum
EPD             .m                      0.00000            :Elevation of Permanent Datum (PDAT) above Mean Sea Level
EKB             .m                      -999.25            :Elevation of Kelly Bushing Above Permanent Datum
EDF             .m                     23.85000            :Elevation of Drill Floor Above Permanent Datum
EGL             .m                   -300.95000            :Elevation of Ground Level Above Permanent Datum
ECF             .m                      -999.25            :Elevation of Casing Flange above Permanent Datum
#--------------------------------------------------
~CURVE INFORMATION
#MNEM           .UNIT                  API CODE            :DESCRIPTION
#----            ------          --------------            -----------------------------
DEPT            .m                                         :                                                        Depth Index
ROP5            .m/h                                       :(RT)    (DRILLING_SURFACE)      (6in)                   Rate of penetration averaged over the last 5 ft (1.5 m)
GR              .gAPI                                      :(RM)    (ARC9)                  (6in)                   Gamma Ray
BLKP            .m                                         :(RT)    (DRILLING_SURFACE)      (6in)                   Height of block above rig floor
HKLA            .1000 lbf                                  :(RT)    (DRILLING_SURFACE)      (6in)                   Average Hookload
SWOB            .1000 lbf                                  :(RT)    (DRILLING_SURFACE)      (6in)                   Surface Weight On Bit
SHKL            .                                          :(RM)    (ARC9)                  (6in)                   Tool Shock Level
SHKL            .                                          :(RM)    (SONICVISION9)          (6in)                   Tool Shock Level
SHKRSK          .                                          :(RM)    (TELE900)               (6in)                   Shock Risk
SHOCKS_ACC      .                                          :(RM)    (TELE900)               (6in)                   Total Shocks accumulated over tool lifetime
STOR            .1000 ft.lbf                               :(RT)    (DRILLING_SURFACE)      (6in)                   Surface Torque
VIB_LAT         .gn                                        :(RM)    (TELE900)               (6in)                   Transverse RMS Vibration
VIB_X           .gn                                        :(RM)    (TELE900)               (6in)                   RMS Vibration, X-Axis
CRPM            .c/min                                     :(RM)    (TELE900)               (6in)                   Collar Rotational Speed
RPM             .c/min                                     :(RT)    (DRILLING_SURFACE)      (6in)                   Rotational Speed
STICKNSLIP      .c/min                                     :(RM)    (TELE900)               (6in)                   Stick Slip Indicator
TFLO            .gal/min                                   :(RT)    (DRILLING_SURFACE)      (6in)                   Total flow rate of all active pumps
SPPA            .psi                                       :(RT)    (DRILLING_SURFACE)      (6in)                   Standpipe Pressure
TRPM            .c/min                                     :(RM)    (TELE900)               (6in)                   MWD Turbine Rotation Speed
ECD             .g/cm3                                     :(RM)    (ARC9)                  (6in)                   Equivalent Circulating Density
DHAT            .degC                                      :(RM)    (ARC9)                  (6in)                   Downhole Annulus Temperature
DHAP            .psi                                       :(RM)    (ARC9)                  (6in)                   Downhole Annulus Pressure
#-------------------------------------------------------------
#            DEPT         ROP5           GR         BLKP         HKLA         SWOB         SHKL         SHKL       SHKRSK   SHOCKS_ACC         STOR      VIB_LAT        VIB_X         CRPM          RPM   STICKNSLIP         TFLO         SPPA         TRPM          ECD         DHAT         DHAP 
#                  (DRILLING_)       (ARC9)  (DRILLING_)  (DRILLING_)  (DRILLING_)       (ARC9)  (SONICVISI)    (TELE900)    (TELE900)  (DRILLING_)    (TELE900)    (TELE900)    (TELE900)  (DRILLING_)    (TELE900)  (DRILLING_)  (DRILLING_)    (TELE900)       (ARC9)       (ARC9)       (ARC9) 
#                         (RT)         (RM)         (RT)         (RT)         (RT)         (RM)         (RM)         (RM)         (RM)         (RT)         (RM)         (RM)         (RM)         (RT)         (RM)         (RT)         (RT)         (RM)         (RM)         (RM)         (RM) 
#                        (6in)        (6in)        (6in)        (6in)        (6in)        (6in)        (6in)        (6in)        (6in)        (6in)        (6in)        (6in)        (6in)        (6in)        (6in)        (6in)        (6in)        (6in)        (6in)        (6in)        (6in) 
~ASCII
# ...
       3455.51760     11.33922    129.72120     10.96751    613.53391      4.50557      0.00000      0.00000      0.00000      0.00000      5.86000      0.99932      0.12492    171.00000    144.00000    183.00000   1221.42293   3828.69605   3589.00000      1.30257     68.00000   6396.00034
       3455.67000      8.48317    130.89420     10.84939    615.24139      1.28962      0.00000      0.00000      0.00000      0.00000     14.47000      0.99932      0.15267    135.00000    145.00000     78.00000   1221.42293   3819.42379   3591.00000      1.30252     68.00000   6396.00034
       3455.82240      8.48047    133.90910     10.67431    612.88112      9.49604      0.00000      0.00000      0.00000      0.00000     11.60000      1.03055      0.12492    135.00000    158.00000    192.00000   1221.42293   3824.74522   3586.00000      1.30306     68.00000   6398.99972
       3455.97480      7.29344    133.01340     10.49488    613.38444      3.45709      0.00000      0.00000      0.00000      0.00000      3.10000      1.08260      0.12492    167.00000    163.00000    195.00000   1221.42293   3834.93267   3584.00000      1.30261     68.00000   6396.99965
       3456.12720      6.64196    126.57350     10.36950    606.27012     11.09007      0.00000      0.00000      0.00000      0.00000      8.92000      1.04929      0.12492     84.00000    142.00000     72.00000   1226.40838   3846.23691   3602.00000      1.30193     68.00000   6394.00027
       3456.27960      6.34609    121.74440     10.20313    614.14790      3.15185      0.00000      0.00000      0.00000      0.00000     12.61000      0.99932      0.12492     85.00000    138.00000    105.00000   1221.42293   3842.51959   3597.00000      1.30372     68.00000   6402.99986
       3456.43200      6.47021    124.75350      9.99335    609.10130      7.48187      0.00000      0.00000      0.00000      0.00000     10.55000      1.08260      0.12492    145.00000    140.00000    189.00000   1221.42293   3834.78473   3585.00000      1.30346     68.00000   6401.99910
       3456.58440      5.85478    130.27200      9.85015    612.44130      4.36260      0.00000      0.00000      -999.25      -999.25     15.62000      0.99932      0.12492      -999.25    145.00000      -999.25   1216.43774   3813.92250      -999.25      1.30236     68.00000   6396.99965
       3456.73680      5.82731    131.46470      9.69037    610.10374      6.94722      0.00000      0.00000      0.00000      0.00000     13.87000      0.99932      0.12492    178.00000    146.00000     69.00000   1221.42293   3833.75496   3586.00000      1.30213     68.00000   6396.00034
       3456.88920      5.64189    133.69610      9.52905    613.60380      2.90166      0.00000      0.00000      -999.25      -999.25      9.65000      0.99932      0.12492      -999.25    152.00000    171.00000   1221.42293   3832.29008      -999.25      1.30269     68.00000   6398.99972
       3457.04160      5.39200    139.96160      9.39297    614.53216      2.95535      0.00000      0.00000      0.00000      0.00000      6.34000      0.99932      0.12492     79.00000    147.00000      -999.25   1226.40838   3854.01384   3603.00000      1.30179     68.00000   6394.99958
       3457.19400      5.92394    143.17200      9.17202    616.36134      1.61119      0.00000      0.00000      0.00000      0.00000      3.98000      1.03055      0.12492    135.00000    167.00000    123.00000   1216.43774   3819.79363   3591.00000      1.30235     68.00000   6398.00041
       3457.34640      5.45386    141.69780      9.03242    611.85950      4.60672      0.00000      0.00000      0.00000      0.00000     20.85000      1.10639      0.12492    144.00000    140.00000     45.00000   1216.43774   3811.12037   3588.00000      1.30227     68.00000   6398.00041
       3457.49880      5.93006    138.90460      8.89641    613.70212      3.47673      0.00000      0.00000      0.00000      0.00000     12.10000      0.99932      0.12492    126.00000    156.00000    127.50000   1221.42293   3831.85207   3586.00000      1.30184     68.00000   6396.00034
       3457.65120      5.47728    133.07300      8.73020    617.99166      1.22110      0.00000      0.00000      0.00000      0.00000     13.55000      1.09301      0.12492    121.50000    140.00000     72.00000   1221.42293   3804.97658   3579.00000      1.30318     68.00000   6402.99986
       3457.80360      5.23717    128.80890      8.56200    614.89262      2.12784      0.00000      0.00000      0.00000      0.00000      7.03000      0.99932      0.12492    192.00000    159.00000     78.00000   1216.43774   3814.85510   3569.00000      1.30314     68.00000   6402.99986
       3457.95600      5.13248    140.82440      8.40291    617.20328     -0.13870      0.00000      0.00000      0.00000      0.00000     15.28000      0.99932      0.12492    163.00000    136.00000    171.00000   1216.43774   3819.18447   3579.00000      1.30188     68.00000   6396.99965
       3458.10840      5.03421    157.82060      8.27447    610.78210      6.18801      0.00000      0.00000      0.00000      0.00000      8.24000      1.04096      0.12492    101.00000    149.00000    186.00000   1221.42293   3837.17350   3596.00000      1.30220     68.00000   6398.99972
       3458.26080      4.85120    153.44740      8.07439    620.24676     -2.86927      0.00000      0.00000      -999.25      -999.25      7.06000      1.04096      0.12492      -999.25    162.00000    120.00000   1221.42293   3834.25099      -999.25      1.30316     68.00000   6404.00062
       3458.41320      4.60713    138.31810      7.95031    609.88526     -0.38001      0.00000      0.00000      0.00000      0.00000      3.67000      1.07070      0.12492    141.00000    155.00000     84.00000   1216.43774   3827.68368   3587.00000      1.30249     68.00000   6400.99979
       3458.56560      4.56256    134.51310      7.79052    615.05025      3.34782      0.00000      0.00000      0.00000      0.00000      7.90000      1.16588      0.12492    146.00000    147.00000      -999.25   1226.40838   3840.96044   3593.00000      1.30347     68.00000   6406.00069
       3458.71800      4.64876    134.66300      7.62385    609.20535      7.63267      0.00000      0.00000      0.00000      0.00000      7.42000      1.08260      0.12492    134.00000    146.00000    171.00000   1221.42293   3825.28041   3598.00000      1.30321     68.00000   6404.99993
       3458.87040      4.82831    132.15170      7.42989    616.99340     -0.12288      0.00000      0.00000      0.00000      0.00000     15.28000      0.99932      0.12492    136.00000    130.00000    138.00000   1221.42293   3821.05401   3586.00000      1.30211     68.00000   6400.00048
       3459.02280      5.02154    137.37810      7.31720    613.56389      3.55502      0.00000      0.00000      -999.25      -999.25     11.34000      0.99932      0.12492      -999.25    146.00000      -999.25   1221.42293   3814.24014      -999.25      1.30167     68.00000   6398.00041
       3459.17520      5.56965    147.82680      7.15443    611.32355      5.93313      0.00000      0.00000      -999.25      -999.25      8.54000      0.99932      0.12492      -999.25    149.00000    150.00000   1216.43774   3808.79687      -999.25      1.30160     68.00000   6398.00041
       3459.32760      6.17702    150.27420      6.97630    616.66954      0.40970      0.00000      0.00000      0.00000      0.00000     14.75000      0.99932      0.12492    138.00000    149.00000      -999.25   1216.43774   3791.77379   3580.00000      1.30359     68.00000   6408.00076
       3459.48000      6.12155    143.14360      6.81881    616.85936     -0.26381      0.00000      0.00000      0.00000      0.00000     15.04000      0.99932      0.12492    177.00000    146.00000     81.00000   1221.42293   3805.71337   3578.00000      1.30270     68.00000   6404.00062
       3459.63240      6.50795    136.83290      6.64450    611.66527      4.86128      0.00000      0.00000      -999.25      -999.25     10.21000      0.99932      0.12492      -999.25    149.00000    174.00000   1221.42293   3800.77338      -999.25      1.30366     68.00000   6409.00007
