~VERSION INFORMATION 
VERS  .    2.0                                     :CWLS Log ASCII Standard - VERSION 2.0
WRAP  .    NO                                      :One Line per Depth step
PROD  .    Schlumberger Technology Corp.           :LAS Producer
PROG  .    Horizon LASWriter 10.1.205256.3100      :LAS Program name and version
SOURCE.    Run5_16.5in-Drilling                    :Run&Pass Information
CREA  .    01/07/2021                              :LAS Creation date {MM/DD/YYYY}
#--------------------------------------------------
~WELL INFORMATION 
#MNEM           .UNIT                      DATA            :DESCRIPTION
#----            ------          --------------            -----------------------------
STRT            .m                   2934.91920            :START DEPTH
STOP            .m                   3810.30480            :STOP DEPTH
STEP            .m                       0.1524            :STEP
NULL            .                       -999.25            :NULL VALUE
COMP            .                BP Development Australia Pty Ltd:COMPANY
WELL            .                    Ironbark-1            :WELL NAME
FLD             .                      Ironbark            :FIELD NAME
RIGN            .                    Ocean Apex            :Rig Name
RIGTYP          .                Semi-Submersible          :Rig Type
SON             .                     20AWA0029            :Service Order Number
SRVC            .                  Schlumberger            :SERVICE COMPANY
DATE            .                    11/27/2020            :LOG DATE(Composite Date for Composite LAP) (MM/DD/YYYY)
CLAB            .                       County:            :County Label
CNTY            .                                          :COUNTY
SLAB            .                        State:            :State/Province Label
STAT            .                Western Australia         :STATE or PROVINCE
PROV            .                Western Australia         :STATE or PROVINCE
CTRY            .                     Australia            :COUNTRY
CONT_REGION     .                   Australasia            :Continent Region
SECT            .                                          :Section
TOWN            .                                          :Township
RANG            .                                          :Range
API             .                                          :API NUMBER
UWI             .                     20AWA0029            :UNIQUE WELL ID
LUL             .                 Portside Deck            :Logging Unit Location
LUN             .                       1010979            :Logging Unit Number
LOC             .                      WA-359-P            :FIELD LOCATION
FL1             .                Northing: 7,881,270.990 m :Field Location Line 1
FL2             .                Easting: 402,902.910 m    :Field Location Line 2
LATI            .deg             19° 9' 34.079" S          :LATITUDE
LONG            .deg             116° 4' 35.795" E         :LONGITUDE
PDAT            .                           MSL            :Local Permanent Datum
LMF             .                            DF            :Logging Measured From
APD             .m                     23.85000            :Elevation of Depth Reference (LMF) Above Permanent Datum
EPD             .m                      0.00000            :Elevation of Permanent Datum (PDAT) above Mean Sea Level
EKB             .m                      -999.25            :Elevation of Kelly Bushing Above Permanent Datum
EDF             .m                     23.85000            :Elevation of Drill Floor Above Permanent Datum
EGL             .m                   -300.95000            :Elevation of Ground Level Above Permanent Datum
ECF             .m                      -999.25            :Elevation of Casing Flange above Permanent Datum
#--------------------------------------------------
~CURVE INFORMATION
#MNEM           .UNIT                  API CODE            :DESCRIPTION
#----            ------          --------------            -----------------------------
DEPT            .m                                         :                                                        Depth Index
ROP5            .m/h                                       :(RT)    (DRILLING_SURFACE)      (6in)                   Rate of penetration averaged over the last 5 ft (1.5 m)
GR              .gAPI                                      :(RM)    (ARC9)                  (6in)                   Gamma Ray
BLKP            .m                                         :(RT)    (DRILLING_SURFACE)      (6in)                   Height of block above rig floor
HKLA            .1000 lbf                                  :(RT)    (DRILLING_SURFACE)      (6in)                   Average Hookload
SWOB            .1000 lbf                                  :(RT)    (DRILLING_SURFACE)      (6in)                   Surface Weight On Bit
SHKL            .                                          :(RM)    (ARC9)                  (6in)                   Tool Shock Level
SHKL            .                                          :(RM)    (SONICVISION9)          (6in)                   Tool Shock Level
SHKRSK          .                                          :(RM)    (TELE900)               (6in)                   Shock Risk
SHOCKS_ACC      .                                          :(RM)    (TELE900)               (6in)                   Total Shocks accumulated over tool lifetime
STOR            .1000 ft.lbf                               :(RT)    (DRILLING_SURFACE)      (6in)                   Surface Torque
VIB_LAT         .gn                                        :(RM)    (TELE900)               (6in)                   Transverse RMS Vibration
VIB_X           .gn                                        :(RM)    (TELE900)               (6in)                   RMS Vibration, X-Axis
CRPM            .c/min                                     :(RM)    (TELE900)               (6in)                   Collar Rotational Speed
RPM             .c/min                                     :(RT)    (DRILLING_SURFACE)      (6in)                   Rotational Speed
STICKNSLIP      .c/min                                     :(RM)    (TELE900)               (6in)                   Stick Slip Indicator
TFLO            .gal/min                                   :(RT)    (DRILLING_SURFACE)      (6in)                   Total flow rate of all active pumps
SPPA            .psi                                       :(RT)    (DRILLING_SURFACE)      (6in)                   Standpipe Pressure
TRPM            .c/min                                     :(RM)    (TELE900)               (6in)                   MWD Turbine Rotation Speed
ECD             .g/cm3                                     :(RM)    (ARC9)                  (6in)                   Equivalent Circulating Density
DHAT            .degC                                      :(RM)    (ARC9)                  (6in)                   Downhole Annulus Temperature
DHAP            .psi                                       :(RM)    (ARC9)                  (6in)                   Downhole Annulus Pressure
#-------------------------------------------------------------
#            DEPT         ROP5           GR         BLKP         HKLA         SWOB         SHKL         SHKL       SHKRSK   SHOCKS_ACC         STOR      VIB_LAT        VIB_X         CRPM          RPM   STICKNSLIP         TFLO         SPPA         TRPM          ECD         DHAT         DHAP 
#                  (DRILLING_)       (ARC9)  (DRILLING_)  (DRILLING_)  (DRILLING_)       (ARC9)  (SONICVISI)    (TELE900)    (TELE900)  (DRILLING_)    (TELE900)    (TELE900)    (TELE900)  (DRILLING_)    (TELE900)  (DRILLING_)  (DRILLING_)    (TELE900)       (ARC9)       (ARC9)       (ARC9) 
#                         (RT)         (RM)         (RT)         (RT)         (RT)         (RM)         (RM)         (RM)         (RM)         (RT)         (RM)         (RM)         (RM)         (RT)         (RM)         (RT)         (RT)         (RM)         (RM)         (RM)         (RM) 
#                        (6in)        (6in)        (6in)        (6in)        (6in)        (6in)        (6in)        (6in)        (6in)        (6in)        (6in)        (6in)        (6in)        (6in)        (6in)        (6in)        (6in)        (6in)        (6in)        (6in)        (6in) 
~ASCII
# ...
       3340.30320     20.40876    152.49240     13.97224    597.00012      7.80077      0.00000      0.00000      -999.25      -999.25      9.99000      0.49966      0.12492      -999.25    154.00000    105.00000   1221.42293   3765.23479      -999.25      1.28785     63.00000   6112.99981
       3340.45560     21.50327    152.86670     13.80123    596.82750      7.97177      0.00000      0.00000      0.00000      0.00000     20.03000      0.49966      0.12492    164.00000    145.00000      -999.25   1221.42293   3754.58902   3551.00000      1.28822     63.00000   6114.99988
       3340.60800     19.72185    143.83580     13.66181    597.04157      7.33101      0.00000      0.00000      -999.25      -999.25      9.98000      0.49966      0.12492      -999.25    140.00000      -999.25   1221.42293   3757.50427      -999.25      1.28879     63.00000   6118.00071
       3340.76040     19.49627    134.83490     13.51388    596.60858     10.27022      0.00000      0.00000      -999.25      -999.25      8.58000      0.49966      0.12492      -999.25    164.00000      -999.25   1221.42293   3756.74138      -999.25      1.28641     63.00000   6106.99960
       3340.91280     19.87021    128.15970     13.35337    597.41569      7.36811      0.00000      0.00000      -999.25      -999.25     18.63000      0.49966      0.12492      -999.25    152.00000      -999.25   1221.42293   3735.94441      -999.25      1.28783     63.00000   6114.00057
       3341.06520     21.50588    120.87460     13.21733    594.22119     10.71695      0.00000      0.00000      -999.25      -999.25     17.75000      0.49966      0.12492      -999.25    151.00000     69.00000   1221.42293   3735.08869      -999.25      1.28693     63.00000   6110.00043
       3341.21760     21.12029    117.75860     13.05606    594.30784     10.86037      0.00000      0.00000      0.00000      0.00000     15.63000      0.49966      0.12492    132.00000    152.00000      -999.25   1221.42293   3745.62858   3547.00000      1.28686     63.00000   6110.00043
       3341.37000     20.91985    120.10300     12.88865    599.96380      4.75849      0.00000      0.00000      -999.25      -999.25     17.42000      0.49966      0.12492      -999.25    154.00000      -999.25   1221.42293   3730.75787      -999.25      1.28702     63.00000   6110.99974
       3341.52240     21.71140    127.10450     12.75836    599.85599      5.44616      0.00000      0.00000      -999.25      -999.25     22.56000      0.49966      0.12492      -999.25    164.00000      -999.25   1221.42293   3736.45350      -999.25      1.28612     63.00000   6106.99960
       3341.67480     21.38848    135.71550     12.59862    597.31715      8.14039      0.00000      0.00000      -999.25      -999.25     22.58000      0.49966      0.12492      -999.25    128.00000      -999.25   1221.42293   3731.60344      -999.25      1.28817     63.00000   6116.99995
       3341.82720     21.67386    137.46810     12.44479    597.95869      8.55398      0.00000      0.00000      0.00000      0.00000      6.49000      0.49966      0.12492    136.00000    165.00000    153.00000   1221.42293   3756.84725   3545.00000      1.28790     63.00000   6116.00064
       3341.97960     20.23253    133.02760     12.31173    599.29910      5.62912      0.00000      0.00000      -999.25      -999.25     15.05000      0.49966      0.12492      -999.25    152.00000      -999.25   1221.42293   3737.27151      -999.25      1.28679     63.00000   6110.99974
       3342.13200     21.91565    134.68400     12.16994    598.30217      6.97806      0.00000      0.00000      -999.25      -999.25     15.63000      0.49966      0.12492      -999.25    147.00000      -999.25   1221.42293   3745.73156      -999.25      1.28842     63.00000   6119.00002
       3342.28440     20.70788    139.66740     11.95851    591.04874     15.37818      0.00000      0.00000      -999.25      -999.25      5.55000      0.66621      0.12492      -999.25    158.00000    162.00000   1221.42293   3750.26254      -999.25      1.28898     63.00000   6121.99940
       3342.43680     19.77134    139.83090     11.85974    592.00555     12.48288      0.00000      0.00000      -999.25      -999.25     25.13000      0.74949      0.12492    126.00000    140.00000      -999.25   1221.42293   3746.96873      -999.25      1.28873     63.00000   6121.00009
       3342.58920     19.33695    138.50050     11.70299    593.14225     11.97250      0.00000      0.00000      0.00000      0.00000     14.47000      0.49966      0.12492      -999.25    151.00000      -999.25   1221.42293   3751.09941   3555.00000      1.28782     63.00000   6116.99995
       3342.74160     18.33900    137.60520     11.49709    596.56956      9.20631      0.00000      0.00000      -999.25      -999.25      3.69000      0.62458      0.12492      -999.25    152.00000      -999.25   1221.42293   3764.99112      -999.25      1.28670     63.00000   6112.00050
       3342.89400     18.53174    137.41780     11.47991    591.05161     13.92047      0.00000      0.00000      -999.25      -999.25     13.80000      0.49966      0.12492      -999.25    133.00000      -999.25   1221.42293   3758.87053      -999.25      1.28622     63.00000   6110.00043
       3343.04640     18.96399    140.49140     11.23574    597.77240      7.03013      0.00000      0.00000      -999.25      -999.25     22.58000      0.74949      0.12492      -999.25    137.00000    159.00000   1221.42293   3737.21204      -999.25      1.28721     63.00000   6114.99988
       3343.19880     19.39082    141.36130     11.08880    594.84246      9.86456      0.00000      0.00000      0.00000      0.00000     15.92000      -999.25      -999.25    138.00000    145.00000      -999.25   1221.42293   3748.72079   3549.00000      1.28739     63.00000   6116.00064
       3343.35120     19.38050    141.92370     10.94018    593.68657     11.38602      0.00000      0.00000      -999.25      -999.25     13.87000      0.62458      0.12492      -999.25    146.00000      -999.25   1221.42293   3747.93323      -999.25      1.28732     63.00000   6116.00064
       3343.50360     20.47321    147.02720     10.78804    591.51590     13.38577      0.00000      0.00000      -999.25      -999.25     19.91000      0.49966      0.12492      -999.25    152.00000      -999.25   1221.42293   3742.68867      -999.25      1.28704     63.00000   6114.99988
       3343.65600     20.85897    144.16420     10.62270    592.09462     12.09680      0.00000      0.00000      -999.25      -999.25     21.18000      0.49966      0.12492      -999.25    145.00000      -999.25   1221.42293   3741.11936      -999.25      1.28701     63.00000   6114.99988
       3343.80840     22.68859    137.01620     10.49923    590.71232     14.11786      0.00000      0.00000      -999.25      -999.25     20.30000      0.49966      0.12492      -999.25    146.00000      -999.25   1221.42293   3744.57706      -999.25      1.28818     63.00000   6121.00009
       3343.96080     23.76305    136.67840     10.28420    593.87882     11.41591      0.00000      0.00000      -999.25      -999.25     21.18000      0.49966      0.12492      -999.25    146.00000    114.00000   1221.42293   3739.74440      -999.25      1.28625     63.00000   6112.00050
       3344.11320     23.81225    142.32150     10.11626    599.48341      5.91385      0.00000      0.00000      0.00000      0.00000     18.03000      0.49966      0.12492    156.00000    155.00000      -999.25   1221.42293   3734.88564   3526.00000      1.28850     63.00000   6123.00016
       3344.26560     25.47462    146.88180     10.06856    595.73004      9.85254      0.00000      0.00000      -999.25      -999.25     18.63000      0.49966      0.12492      -999.25    151.00000      -999.25   1221.42293   3741.95043      -999.25      1.28801     63.00000   6121.00009
       3344.41800     26.40467    144.85070      9.84586    598.29049      6.91606      0.00000      0.00000      -999.25      -999.25     18.71000      0.49966      0.12492      -999.25    152.00000      -999.25   1221.42293   3754.21917      -999.25      1.28733     63.00000   6118.00071
