~VERSION INFORMATION 
VERS  .    2.0                                     :CWLS Log ASCII Standard - VERSION 2.0
WRAP  .    NO                                      :One Line per Depth step
PROD  .    Schlumberger Technology Corp.           :LAS Producer
PROG  .    Horizon LASWriter 10.1.205256.3100      :LAS Program name and version
SOURCE.    Run5_16.5in-Drilling                    :Run&Pass Information
CREA  .    01/07/2021                              :LAS Creation date {MM/DD/YYYY}
#--------------------------------------------------
~WELL INFORMATION 
#MNEM           .UNIT                      DATA            :DESCRIPTION
#----            ------          --------------            -----------------------------
STRT            .m                   2934.91920            :START DEPTH
STOP            .m                   3810.30480            :STOP DEPTH
STEP            .m                       0.1524            :STEP
NULL            .                       -999.25            :NULL VALUE
COMP            .                BP Development Australia Pty Ltd:COMPANY
WELL            .                    Ironbark-1            :WELL NAME
FLD             .                      Ironbark            :FIELD NAME
RIGN            .                    Ocean Apex            :Rig Name
RIGTYP          .                Semi-Submersible          :Rig Type
SON             .                     20AWA0029            :Service Order Number
SRVC            .                  Schlumberger            :SERVICE COMPANY
DATE            .                    11/27/2020            :LOG DATE(Composite Date for Composite LAP) (MM/DD/YYYY)
CLAB            .                       County:            :County Label
CNTY            .                                          :COUNTY
SLAB            .                        State:            :State/Province Label
STAT            .                Western Australia         :STATE or PROVINCE
PROV            .                Western Australia         :STATE or PROVINCE
CTRY            .                     Australia            :COUNTRY
CONT_REGION     .                   Australasia            :Continent Region
SECT            .                                          :Section
TOWN            .                                          :Township
RANG            .                                          :Range
API             .                                          :API NUMBER
UWI             .                     20AWA0029            :UNIQUE WELL ID
LUL             .                 Portside Deck            :Logging Unit Location
LUN             .                       1010979            :Logging Unit Number
LOC             .                      WA-359-P            :FIELD LOCATION
FL1             .                Northing: 7,881,270.990 m :Field Location Line 1
FL2             .                Easting: 402,902.910 m    :Field Location Line 2
LATI            .deg             19° 9' 34.079" S          :LATITUDE
LONG            .deg             116° 4' 35.795" E         :LONGITUDE
PDAT            .                           MSL            :Local Permanent Datum
LMF             .                            DF            :Logging Measured From
APD             .m                     23.85000            :Elevation of Depth Reference (LMF) Above Permanent Datum
EPD             .m                      0.00000            :Elevation of Permanent Datum (PDAT) above Mean Sea Level
EKB             .m                      -999.25            :Elevation of Kelly Bushing Above Permanent Datum
EDF             .m                     23.85000            :Elevation of Drill Floor Above Permanent Datum
EGL             .m                   -300.95000            :Elevation of Ground Level Above Permanent Datum
ECF             .m                      -999.25            :Elevation of Casing Flange above Permanent Datum
#--------------------------------------------------
~CURVE INFORMATION
#MNEM           .UNIT                  API CODE            :DESCRIPTION
#----            ------          --------------            -----------------------------
DEPT            .m                                         :                                                        Depth Index
ROP5            .m/h                                       :(RT)    (DRILLING_SURFACE)      (6in)                   Rate of penetration averaged over the last 5 ft (1.5 m)
GR              .gAPI                                      :(RM)    (ARC9)                  (6in)                   Gamma Ray
BLKP            .m                                         :(RT)    (DRILLING_SURFACE)      (6in)                   Height of block above rig floor
HKLA            .1000 lbf                                  :(RT)    (DRILLING_SURFACE)      (6in)                   Average Hookload
SWOB            .1000 lbf                                  :(RT)    (DRILLING_SURFACE)      (6in)                   Surface Weight On Bit
SHKL            .                                          :(RM)    (ARC9)                  (6in)                   Tool Shock Level
SHKL            .                                          :(RM)    (SONICVISION9)          (6in)                   Tool Shock Level
SHKRSK          .                                          :(RM)    (TELE900)               (6in)                   Shock Risk
SHOCKS_ACC      .                                          :(RM)    (TELE900)               (6in)                   Total Shocks accumulated over tool lifetime
STOR            .1000 ft.lbf                               :(RT)    (DRILLING_SURFACE)      (6in)                   Surface Torque
VIB_LAT         .gn                                        :(RM)    (TELE900)               (6in)                   Transverse RMS Vibration
VIB_X           .gn                                        :(RM)    (TELE900)               (6in)                   RMS Vibration, X-Axis
CRPM            .c/min                                     :(RM)    (TELE900)               (6in)                   Collar Rotational Speed
RPM             .c/min                                     :(RT)    (DRILLING_SURFACE)      (6in)                   Rotational Speed
STICKNSLIP      .c/min                                     :(RM)    (TELE900)               (6in)                   Stick Slip Indicator
TFLO            .gal/min                                   :(RT)    (DRILLING_SURFACE)      (6in)                   Total flow rate of all active pumps
SPPA            .psi                                       :(RT)    (DRILLING_SURFACE)      (6in)                   Standpipe Pressure
TRPM            .c/min                                     :(RM)    (TELE900)               (6in)                   MWD Turbine Rotation Speed
ECD             .g/cm3                                     :(RM)    (ARC9)                  (6in)                   Equivalent Circulating Density
DHAT            .degC                                      :(RM)    (ARC9)                  (6in)                   Downhole Annulus Temperature
DHAP            .psi                                       :(RM)    (ARC9)                  (6in)                   Downhole Annulus Pressure
#-------------------------------------------------------------
#            DEPT         ROP5           GR         BLKP         HKLA         SWOB         SHKL         SHKL       SHKRSK   SHOCKS_ACC         STOR      VIB_LAT        VIB_X         CRPM          RPM   STICKNSLIP         TFLO         SPPA         TRPM          ECD         DHAT         DHAP 
#                  (DRILLING_)       (ARC9)  (DRILLING_)  (DRILLING_)  (DRILLING_)       (ARC9)  (SONICVISI)    (TELE900)    (TELE900)  (DRILLING_)    (TELE900)    (TELE900)    (TELE900)  (DRILLING_)    (TELE900)  (DRILLING_)  (DRILLING_)    (TELE900)       (ARC9)       (ARC9)       (ARC9) 
#                         (RT)         (RM)         (RT)         (RT)         (RT)         (RM)         (RM)         (RM)         (RM)         (RT)         (RM)         (RM)         (RM)         (RT)         (RM)         (RT)         (RT)         (RM)         (RM)         (RM)         (RM) 
#                        (6in)        (6in)        (6in)        (6in)        (6in)        (6in)        (6in)        (6in)        (6in)        (6in)        (6in)        (6in)        (6in)        (6in)        (6in)        (6in)        (6in)        (6in)        (6in)        (6in)        (6in) 
~ASCII
       2934.91920     32.47934     18.94842     25.63045    596.29354    -24.81916      0.00000      0.00000      -999.25      -999.25      0.00000      -999.25      -999.25      -999.25      0.00000      -999.25    299.12385    434.17264      -999.25      1.28384     43.00000   5353.99992
       2935.07160     32.98509     17.16879     25.53451    589.91777    -19.58443      0.00000      0.00000      -999.25      -999.25      -999.25      -999.25      -999.25      -999.25      -999.25      -999.25      -999.25    445.85601      -999.25      1.28115     43.00000   5343.00026
       2935.22400     33.33262     17.33801     25.39854    591.75422    -20.20908      0.00000      0.00000      -999.25      -999.25      0.00000      -999.25      -999.25      -999.25      0.00000      -999.25    294.13866    432.89182      -999.25      1.27963     43.00000   5337.00005
       2935.37640     33.35651     17.36721     25.24241    591.67552    -20.74919      0.00000      0.00000      -999.25      -999.25      -999.25      -999.25      -999.25      -999.25      -999.25      -999.25      -999.25    426.24387      -999.25      1.27669     43.00000   5324.99962
       2935.52880     33.26957     15.81547     25.09387    589.71803    -19.87481      0.00000      0.00000      -999.25      -999.25      0.00000      -999.25      -999.25      -999.25      0.00000      -999.25    294.13866    435.05911      -999.25      1.27543     43.00000   5320.00017
       2935.68120     33.13439      9.72858     24.94041    591.02163    -20.73773      0.00000      0.00000      -999.25      -999.25      0.00000      -999.25      -999.25      -999.25      0.00000      -999.25    299.12385    433.14868      -999.25      1.27301     44.00000   5309.99982
       2935.83360     33.14891      5.70863     24.71357    593.55584    -22.46744      0.00000      0.00000      -999.25      -999.25      -999.25      -999.25      -999.25      -999.25      -999.25      -999.25      -999.25    423.33513      -999.25      1.27195     44.00000   5305.99968
       2935.98600     34.41624     11.25603     24.60245    591.03992    -19.38374      0.00000      0.00000      -999.25      -999.25      0.00000      -999.25      -999.25      -999.25      0.00000      -999.25    294.13866    433.12692      -999.25      1.27284     44.00000   5309.99982
       2936.13840     69.78287     19.78747     24.49149    590.14088    -19.71924      0.00000      0.00000      -999.25      -999.25      0.00000      -999.25      -999.25      -999.25      0.00000      -999.25    299.12385    447.11436      -999.25      1.27181     44.00000   5305.99968
       2936.29080     77.62411     27.57191     24.34892    593.35015    -22.52465      0.00000      0.00000      -999.25      -999.25      -999.25      -999.25      -999.25      -999.25      -999.25      -999.25      -999.25    427.57517      -999.25      1.27677     44.00000   5326.99970
       2936.44320    171.69520     31.74327     24.12531    597.66570    -27.08255      0.00000      0.00000      -999.25      -999.25      0.00000      -999.25      -999.25      -999.25      0.00000      -999.25    294.13866    418.72177      -999.25      1.27527     44.00000   5320.99948
       2936.59560    171.83980     26.87053     23.98980    591.87768    -18.66363      0.00000      0.00000      -999.25      -999.25      0.00000      -999.25      -999.25      -999.25      0.00000      -999.25    299.12385    441.36506      -999.25      1.27520     44.00000   5320.99948
       2936.74800    171.70660     20.06424     23.91296    589.47376    -20.20771      0.00000      0.00000      -999.25      -999.25      -999.25      -999.25      -999.25      -999.25      -999.25      -999.25      -999.25    452.09438      -999.25      1.27514     44.00000   5320.99948
       2936.90040    172.03250     17.46392     23.76411    593.24102    -23.26774      0.00000      0.00000      -999.25      -999.25      0.00000      -999.25      -999.25      -999.25      0.00000      -999.25    294.13866    426.59413      -999.25      1.27603     44.00000   5324.99962
       2937.05280    172.78270     17.36249     23.55874    592.13672    -21.08037      0.00000      0.00000      -999.25      -999.25      -999.25      -999.25      -999.25      -999.25      -999.25      -999.25      -999.25    422.94948      -999.25      1.27524     44.00000   5322.00024
       2937.20520    175.59490     20.39842     23.44532    590.57056    -19.49774      0.00000      0.00000      -999.25      -999.25      0.00000      -999.25      -999.25      -999.25      0.00000      -999.25    299.12385    435.25521      -999.25      1.27592     44.00000   5324.99962
       2937.35760    180.35170     21.37501     23.24931    591.72270    -20.69448      0.00000      0.00000      -999.25      -999.25      -999.25      -999.25      -999.25      -999.25      -999.25      -999.25      -999.25    439.35919      -999.25      1.27776     45.00000   5332.99991
       2937.51000    184.55940     13.24380     23.12178    592.09814    -21.17321      0.00000      0.00000      -999.25      -999.25      0.00000      -999.25      -999.25      -999.25      0.00000      -999.25    299.12385    436.74039      -999.25      1.27697     45.00000   5329.99908
       2937.66240    187.88980      4.18475     22.92193    590.98260    -20.17457      0.00000      0.00000      -999.25      -999.25      -999.25      -999.25      -999.25      -999.25      -999.25      -999.25      -999.25    433.15825      -999.25      1.27763     45.00000   5332.99991
       2937.81480    193.42370      5.66223     22.82201    591.88275    -21.32163      0.00000      0.00000      -999.25      -999.25      0.00000      -999.25      -999.25      -999.25      0.00000      -999.25    294.13866    431.92456      -999.25      1.27756     45.00000   5332.99991
       2937.96720    204.86700     10.89432     22.61994    590.91757    -20.41175      0.00000      0.00000      -999.25      -999.25      -999.25      -999.25      -999.25      -999.25      -999.25      -999.25      -999.25    433.44687      -999.25      1.27702     45.00000   5330.99984
       2938.11960    216.95090      6.47527     22.45376    590.85253    -20.19955      0.00000      0.00000      -999.25      -999.25      0.00000      -999.25      -999.25      -999.25      0.00000      -999.25    299.12385    435.63201      -999.25      1.27693     45.00000   5330.99984
       2938.27200    222.86940      0.00000     22.35399    590.72841    -20.76218      0.00000      0.00000      -999.25      -999.25      -999.25      -999.25      -999.25      -999.25      -999.25      -999.25      -999.25    435.20502      -999.25      1.27736     45.00000   5332.99991
       2938.42440    226.78590      0.00000     22.15514    591.15258    -20.69095      0.00000      0.00000      -999.25      -999.25      0.00000      -999.25      -999.25      -999.25      0.00000      -999.25    294.13866    436.00433      -999.25      1.27802     45.00000   5336.00074
       2938.57680    230.88260      0.00000     22.02508    592.29303    -21.46565      0.00000      0.00000      -999.25      -999.25      -999.25      -999.25      -999.25      -999.25      -999.25      -999.25      -999.25    431.90759      -999.25      1.27699     45.00000   5332.00060
       2938.72920    234.62430      7.36772     21.85851    591.24804    -20.38167      0.00000      0.00000      -999.25      -999.25      0.00000      -999.25      -999.25      -999.25      0.00000      -999.25    294.13866    429.70940      -999.25      1.27694     45.00000   5332.00060
       2938.88160    237.34860     14.89663     21.72976    591.42243    -20.66753      0.00000      0.00000      -999.25      -999.25      -999.25      -999.25      -999.25      -999.25      -999.25      -999.25      -999.25    431.20329      -999.25      1.27758     45.00000   5334.99998
       2939.03400    239.05670     11.69242     21.56748    590.03506    -19.51668      0.00000      0.00000      -999.25      -999.25      -999.25      -999.25      -999.25      -999.25      -999.25      -999.25      -999.25    438.09345      -999.25      1.27657     45.00000   5330.99984
