~VERSION INFORMATION 
VERS  .    2.0                                     :CWLS Log ASCII Standard - VERSION 2.0
WRAP  .    NO                                      :One Line per Depth step
PROD  .    Schlumberger Technology Corp.           :LAS Producer
PROG  .    Horizon LASWriter 10.1.205256.3100      :LAS Program name and version
SOURCE.    Run5_16.5in-Drilling                    :Run&Pass Information
CREA  .    01/07/2021                              :LAS Creation date {MM/DD/YYYY}
#--------------------------------------------------
~WELL INFORMATION 
#MNEM           .UNIT                      DATA            :DESCRIPTION
#----            ------          --------------            -----------------------------
STRT            .m                   2934.91920            :START DEPTH
STOP            .m                   3810.30480            :STOP DEPTH
STEP            .m                       0.1524            :STEP
NULL            .                       -999.25            :NULL VALUE
COMP            .                BP Development Australia Pty Ltd:COMPANY
WELL            .                    Ironbark-1            :WELL NAME
FLD             .                      Ironbark            :FIELD NAME
RIGN            .                    Ocean Apex            :Rig Name
RIGTYP          .                Semi-Submersible          :Rig Type
SON             .                     20AWA0029            :Service Order Number
SRVC            .                  Schlumberger            :SERVICE COMPANY
DATE            .                    11/27/2020            :LOG DATE(Composite Date for Composite LAP) (MM/DD/YYYY)
CLAB            .                       County:            :County Label
CNTY            .                                          :COUNTY
SLAB            .                        State:            :State/Province Label
STAT            .                Western Australia         :STATE or PROVINCE
PROV            .                Western Australia         :STATE or PROVINCE
CTRY            .                     Australia            :COUNTRY
CONT_REGION     .                   Australasia            :Continent Region
SECT            .                                          :Section
TOWN            .                                          :Township
RANG            .                                          :Range
API             .                                          :API NUMBER
UWI             .                     20AWA0029            :UNIQUE WELL ID
LUL             .                 Portside Deck            :Logging Unit Location
LUN             .                       1010979            :Logging Unit Number
LOC             .                      WA-359-P            :FIELD LOCATION
FL1             .                Northing: 7,881,270.990 m :Field Location Line 1
FL2             .                Easting: 402,902.910 m    :Field Location Line 2
LATI            .deg             19° 9' 34.079" S          :LATITUDE
LONG            .deg             116° 4' 35.795" E         :LONGITUDE
PDAT            .                           MSL            :Local Permanent Datum
LMF             .                            DF            :Logging Measured From
APD             .m                     23.85000            :Elevation of Depth Reference (LMF) Above Permanent Datum
EPD             .m                      0.00000            :Elevation of Permanent Datum (PDAT) above Mean Sea Level
EKB             .m                      -999.25            :Elevation of Kelly Bushing Above Permanent Datum
EDF             .m                     23.85000            :Elevation of Drill Floor Above Permanent Datum
EGL             .m                   -300.95000            :Elevation of Ground Level Above Permanent Datum
ECF             .m                      -999.25            :Elevation of Casing Flange above Permanent Datum
#--------------------------------------------------
~CURVE INFORMATION
#MNEM           .UNIT                  API CODE            :DESCRIPTION
#----            ------          --------------            -----------------------------
DEPT            .m                                         :                                                        Depth Index
ROP5            .m/h                                       :(RT)    (DRILLING_SURFACE)      (6in)                   Rate of penetration averaged over the last 5 ft (1.5 m)
GR              .gAPI                                      :(RM)    (ARC9)                  (6in)                   Gamma Ray
BLKP            .m                                         :(RT)    (DRILLING_SURFACE)      (6in)                   Height of block above rig floor
HKLA            .1000 lbf                                  :(RT)    (DRILLING_SURFACE)      (6in)                   Average Hookload
SWOB            .1000 lbf                                  :(RT)    (DRILLING_SURFACE)      (6in)                   Surface Weight On Bit
SHKL            .                                          :(RM)    (ARC9)                  (6in)                   Tool Shock Level
SHKL            .                                          :(RM)    (SONICVISION9)          (6in)                   Tool Shock Level
SHKRSK          .                                          :(RM)    (TELE900)               (6in)                   Shock Risk
SHOCKS_ACC      .                                          :(RM)    (TELE900)               (6in)                   Total Shocks accumulated over tool lifetime
STOR            .1000 ft.lbf                               :(RT)    (DRILLING_SURFACE)      (6in)                   Surface Torque
VIB_LAT         .gn                                        :(RM)    (TELE900)               (6in)                   Transverse RMS Vibration
VIB_X           .gn                                        :(RM)    (TELE900)               (6in)                   RMS Vibration, X-Axis
CRPM            .c/min                                     :(RM)    (TELE900)               (6in)                   Collar Rotational Speed
RPM             .c/min                                     :(RT)    (DRILLING_SURFACE)      (6in)                   Rotational Speed
STICKNSLIP      .c/min                                     :(RM)    (TELE900)               (6in)                   Stick Slip Indicator
TFLO            .gal/min                                   :(RT)    (DRILLING_SURFACE)      (6in)                   Total flow rate of all active pumps
SPPA            .psi                                       :(RT)    (DRILLING_SURFACE)      (6in)                   Standpipe Pressure
TRPM            .c/min                                     :(RM)    (TELE900)               (6in)                   MWD Turbine Rotation Speed
ECD             .g/cm3                                     :(RM)    (ARC9)                  (6in)                   Equivalent Circulating Density
DHAT            .degC                                      :(RM)    (ARC9)                  (6in)                   Downhole Annulus Temperature
DHAP            .psi                                       :(RM)    (ARC9)                  (6in)                   Downhole Annulus Pressure
#-------------------------------------------------------------
#            DEPT         ROP5           GR         BLKP         HKLA         SWOB         SHKL         SHKL       SHKRSK   SHOCKS_ACC         STOR      VIB_LAT        VIB_X         CRPM          RPM   STICKNSLIP         TFLO         SPPA         TRPM          ECD         DHAT         DHAP 
#                  (DRILLING_)       (ARC9)  (DRILLING_)  (DRILLING_)  (DRILLING_)       (ARC9)  (SONICVISI)    (TELE900)    (TELE900)  (DRILLING_)    (TELE900)    (TELE900)    (TELE900)  (DRILLING_)    (TELE900)  (DRILLING_)  (DRILLING_)    (TELE900)       (ARC9)       (ARC9)       (ARC9) 
#                         (RT)         (RM)         (RT)         (RT)         (RT)         (RM)         (RM)         (RM)         (RM)         (RT)         (RM)         (RM)         (RM)         (RT)         (RM)         (RT)         (RT)         (RM)         (RM)         (RM)         (RM) 
#                        (6in)        (6in)        (6in)        (6in)        (6in)        (6in)        (6in)        (6in)        (6in)        (6in)        (6in)        (6in)        (6in)        (6in)        (6in)        (6in)        (6in)        (6in)        (6in)        (6in)        (6in) 
~ASCII
# ...
       3630.47280     11.48593    168.51080      4.00046    601.80929     39.91844      0.00000      0.00000      0.00000      0.00000     20.69000      1.24915      0.12492    175.00000    137.00000      -999.25   1191.51046   3828.07964   3495.00000      1.32122     71.00000   6815.99917
       3630.62520      9.94027    163.29710      3.78336    610.66856     31.60097      0.00000      0.00000      0.00000      0.00000     12.39000      1.17777      1.03501    148.00000    151.00000     36.00000   1191.51046   3813.43808   3494.00000      1.32097     71.00000   6814.99986
       3630.77760      8.68219    143.34040      3.63750    608.80455     33.41582      0.00000      0.00000      -999.25      -999.25     11.48000      1.24915      0.93686      -999.25    149.00000     45.00000   1191.51046   3807.80626      -999.25      1.31957     71.00000   6808.00034
       3630.93000      8.18750    134.84720      3.46856    605.79304     36.07188      0.00000      0.00000      0.00000      0.00000     12.98000      1.41571      1.16588    152.00000    154.00000      -999.25   1191.51046   3804.97223   3485.00000      1.31954     71.00000   6808.00034
       3631.08240      7.33103    135.12790      3.29908    599.21577     42.73348      0.00000      0.00000      0.00000      0.00000     13.89000      1.47122      0.86053    138.00000    154.00000     40.50000   1191.51046   3802.28323   3493.50000      1.31987     71.00000   6810.00041
       3631.23480      6.24844    132.01260      3.08512    603.88031     38.39456      0.00000      0.00000      -999.25      -999.25     14.64000      1.49898      1.16588      -999.25    149.00000     27.00000   1196.49592   3816.55784      -999.25      1.32017     71.00000   6812.00048
       3631.38720      5.97834    132.48280      2.97722    601.41841     39.63543      0.00000      0.00000      0.00000      0.00000     12.67000      1.35622      0.30337    149.00000    158.00000    306.00000   1196.49592   3776.42010   3489.00000      1.32128     71.00000   6818.00069
       3631.53960      5.73410    138.99900      2.80782    608.94697     33.36762      0.00000      0.00000      0.00000      0.00000     15.07000      1.24915      0.68703    150.00000    149.00000     33.00000   1196.49592   3815.73693   3492.00000      1.32104     71.00000   6816.99993
       3631.69200      5.65538    147.99910      2.62707    608.71350     33.21734      0.00000      0.00000      0.00000      0.00000     16.45000      1.66554      0.16655    222.00000    148.00000      -999.25   1191.51046   3793.93195   3475.00000      1.31826     71.00000   6803.00089
       3631.84440      5.95299    157.76660      2.50759    609.57771     31.43871      0.00000      0.00000      -999.25      -999.25     14.62000      1.49898      0.18737      -999.25    181.00000      -999.25   1196.49592   3793.82172      -999.25      1.32074     71.00000   6815.99917
       3631.99680      5.94317    162.71200      2.34586    603.34613     36.82452      0.00000      0.00000      0.00000      0.00000     34.63000      1.49898      0.12492    121.00000    110.00000    318.00000   1196.49592   3768.92165   3467.00000      1.32068     71.00000   6815.99917
       3632.14920      5.98875    165.68100      2.11733    612.96446     28.84991      0.00000      0.00000      -999.25      -999.25     24.37000      1.49898      0.12492      -999.25    117.00000      -999.25   1191.51046   3761.43770      -999.25      1.31945     71.00000   6810.00041
       3632.30160      6.14477    174.10510      1.96242    613.83109     28.44237      0.00000      0.00000      0.00000      0.00000     16.36000      1.24915      0.12492     81.00000    175.00000    336.00000   1191.51046   3801.44491   3491.00000      1.31998     71.00000   6812.99979
       3632.45400      6.21073    181.06790      1.82155    612.82402     30.48568      0.00000      0.00000      0.00000      0.00000      9.70000      1.24915      0.68703    155.00000    154.00000    126.00000   1191.51046   3803.77856   3483.00000      1.31955     71.00000   6810.99972
       3632.60640      6.27168    174.01100      1.68206    604.90612     36.82491      0.00000      0.00000      0.00000      0.00000     12.98000      1.20751      0.33311    181.00000    149.00000     90.00000   1191.51046   3810.75198   3490.00000      1.32025     71.00000   6814.99986
       3632.75880      6.82007    157.33330      1.52761    612.68954     29.06685      0.00000      0.00000      -999.25      -999.25      7.15000      1.33243      0.12492      -999.25    157.00000      -999.25   1191.51046   3799.39697      -999.25      1.32194     71.00000   6823.99945
       3632.91120      6.77019    150.25590      1.36028    612.43733     29.89453      0.00000      0.00000      0.00000      0.00000     11.09000      1.37407      0.12492     99.00000    147.00000    246.00000   1191.51046   3827.14704   3486.50000      1.32053     71.00000   6816.99993
       3633.06360      6.26168    151.52390      1.18068    618.18522     24.02629      0.00000      0.00000      -999.25      -999.25     15.06000      1.24915      0.12492      -999.25    150.00000     84.00000   1196.49592   3802.29628      -999.25      1.32146     71.00000   6822.00083
       3633.21600      6.17644    147.10020      1.00943    615.37256     26.42525      0.00000      0.00000      0.00000      0.00000     20.83000      1.37407      0.12492    102.50000    144.00000    327.00000   1196.49592   3815.54693   3490.50000      1.31984     71.00000   6814.00055
       3633.36840      5.74812    139.16730      0.85560    615.31767     30.77702      0.00000      0.00000      0.00000      0.00000     15.80000      1.38795      0.12492    117.00000    156.00000    336.00000   1191.51046   3822.30569   3484.00000      1.32075     71.00000   6819.00000
       3633.52080      4.48548    134.81050     28.31580    632.59486     11.85182      0.00000      0.00000      0.00000      0.00000      9.41000      1.36019      0.12492    171.00000    179.00000    187.50000   1191.51046   3827.11659   3487.00000      1.32128     71.00000   6822.00083
       3633.67320      4.52842    136.75350     28.14417    633.10236      8.91339      0.00000      0.00000      -999.25      -999.25     12.39000      1.49898      0.20819      -999.25    179.00000     33.00000   1191.51046   3827.21666      -999.25      1.32104     71.00000   6821.00007
       3633.82560      4.75162    140.18150     28.00736    622.95294     19.14445      0.00000      0.00000      0.00000      0.00000     12.05000      1.49898      0.37475    166.00000    175.00000      -999.25   1191.51046   3825.32537   3493.00000      1.31982     71.00000   6814.99986
       3633.97800      4.92628    143.67610     27.73696    623.31913     19.55687      0.00000      0.00000      -999.25      -999.25     16.26000      1.49898      0.18737      -999.25    175.00000      -999.25   1186.52501   3809.98618      -999.25      1.31918     71.00000   6812.00048
       3634.13040      5.16896    142.97940     27.58765    618.37063     24.19366      0.00000      0.00000      -999.25      -999.25     14.73000      1.37407      0.12492      -999.25    186.00000      -999.25   1186.52501   3816.81456      -999.25      1.32106     71.00000   6822.00083
       3634.28280      5.54823    132.13890     27.52446    609.11981     33.08352      0.00000      0.00000      0.00000      0.00000     15.05000      1.49898      0.16655    182.00000    176.00000    342.00000   1186.52501   3802.43987   3477.00000      1.31964     71.00000   6814.99986
       3634.43520      5.94196    123.49910     27.32247    610.36146     34.26129      0.00000      0.00000      -999.25      -999.25     15.34000      1.49898      0.12492      -999.25    177.00000      -999.25   1186.52501   3820.53768      -999.25      1.32153     71.00000   6825.00021
       3634.58760      6.62628    120.25230     27.25000    606.83582     35.35507      0.00000      0.00000      -999.25      -999.25     10.57000      1.49898      0.12492      -999.25    198.00000      -999.25   1186.52501   3810.60259      -999.25      1.32052     71.00000   6820.00076
