~VERSION INFORMATION 
VERS  .    2.0                                     :CWLS Log ASCII Standard - VERSION 2.0
WRAP  .    NO                                      :One Line per Depth step
PROD  .    Schlumberger Technology Corp.           :LAS Producer
PROG  .    Horizon LASWriter 10.1.205256.3100      :LAS Program name and version
SOURCE.    Run5_16.5in-Drilling                    :Run&Pass Information
CREA  .    01/07/2021                              :LAS Creation date {MM/DD/YYYY}
#--------------------------------------------------
~WELL INFORMATION 
#MNEM           .UNIT                      DATA            :DESCRIPTION
#----            ------          --------------            -----------------------------
STRT            .m                   2934.91920            :START DEPTH
STOP            .m                   3810.30480            :STOP DEPTH
STEP            .m                       0.1524            :STEP
NULL            .                       -999.25            :NULL VALUE
COMP            .                BP Development Australia Pty Ltd:COMPANY
WELL            .                    Ironbark-1            :WELL NAME
FLD             .                      Ironbark            :FIELD NAME
RIGN            .                    Ocean Apex            :Rig Name
RIGTYP          .                Semi-Submersible          :Rig Type
SON             .                     20AWA0029            :Service Order Number
SRVC            .                  Schlumberger            :SERVICE COMPANY
DATE            .                    11/27/2020            :LOG DATE(Composite Date for Composite LAP) (MM/DD/YYYY)
CLAB            .                       County:            :County Label
CNTY            .                                          :COUNTY
SLAB            .                        State:            :State/Province Label
STAT            .                Western Australia         :STATE or PROVINCE
PROV            .                Western Australia         :STATE or PROVINCE
CTRY            .                     Australia            :COUNTRY
CONT_REGION     .                   Australasia            :Continent Region
SECT            .                                          :Section
TOWN            .                                          :Township
RANG            .                                          :Range
API             .                                          :API NUMBER
UWI             .                     20AWA0029            :UNIQUE WELL ID
LUL             .                 Portside Deck            :Logging Unit Location
LUN             .                       1010979            :Logging Unit Number
LOC             .                      WA-359-P            :FIELD LOCATION
FL1             .                Northing: 7,881,270.990 m :Field Location Line 1
FL2             .                Easting: 402,902.910 m    :Field Location Line 2
LATI            .deg             19° 9' 34.079" S          :LATITUDE
LONG            .deg             116° 4' 35.795" E         :LONGITUDE
PDAT            .                           MSL            :Local Permanent Datum
LMF             .                            DF            :Logging Measured From
APD             .m                     23.85000            :Elevation of Depth Reference (LMF) Above Permanent Datum
EPD             .m                      0.00000            :Elevation of Permanent Datum (PDAT) above Mean Sea Level
EKB             .m                      -999.25            :Elevation of Kelly Bushing Above Permanent Datum
EDF             .m                     23.85000            :Elevation of Drill Floor Above Permanent Datum
EGL             .m                   -300.95000            :Elevation of Ground Level Above Permanent Datum
ECF             .m                      -999.25            :Elevation of Casing Flange above Permanent Datum
#--------------------------------------------------
~CURVE INFORMATION
#MNEM           .UNIT                  API CODE            :DESCRIPTION
#----            ------          --------------            -----------------------------
DEPT            .m                                         :                                                        Depth Index
ROP5            .m/h                                       :(RT)    (DRILLING_SURFACE)      (6in)                   Rate of penetration averaged over the last 5 ft (1.5 m)
GR              .gAPI                                      :(RM)    (ARC9)                  (6in)                   Gamma Ray
BLKP            .m                                         :(RT)    (DRILLING_SURFACE)      (6in)                   Height of block above rig floor
HKLA            .1000 lbf                                  :(RT)    (DRILLING_SURFACE)      (6in)                   Average Hookload
SWOB            .1000 lbf                                  :(RT)    (DRILLING_SURFACE)      (6in)                   Surface Weight On Bit
SHKL            .                                          :(RM)    (ARC9)                  (6in)                   Tool Shock Level
SHKL            .                                          :(RM)    (SONICVISION9)          (6in)                   Tool Shock Level
SHKRSK          .                                          :(RM)    (TELE900)               (6in)                   Shock Risk
SHOCKS_ACC      .                                          :(RM)    (TELE900)               (6in)                   Total Shocks accumulated over tool lifetime
STOR            .1000 ft.lbf                               :(RT)    (DRILLING_SURFACE)      (6in)                   Surface Torque
VIB_LAT         .gn                                        :(RM)    (TELE900)               (6in)                   Transverse RMS Vibration
VIB_X           .gn                                        :(RM)    (TELE900)               (6in)                   RMS Vibration, X-Axis
CRPM            .c/min                                     :(RM)    (TELE900)               (6in)                   Collar Rotational Speed
RPM             .c/min                                     :(RT)    (DRILLING_SURFACE)      (6in)                   Rotational Speed
STICKNSLIP      .c/min                                     :(RM)    (TELE900)               (6in)                   Stick Slip Indicator
TFLO            .gal/min                                   :(RT)    (DRILLING_SURFACE)      (6in)                   Total flow rate of all active pumps
SPPA            .psi                                       :(RT)    (DRILLING_SURFACE)      (6in)                   Standpipe Pressure
TRPM            .c/min                                     :(RM)    (TELE900)               (6in)                   MWD Turbine Rotation Speed
ECD             .g/cm3                                     :(RM)    (ARC9)                  (6in)                   Equivalent Circulating Density
DHAT            .degC                                      :(RM)    (ARC9)                  (6in)                   Downhole Annulus Temperature
DHAP            .psi                                       :(RM)    (ARC9)                  (6in)                   Downhole Annulus Pressure
#-------------------------------------------------------------
#            DEPT         ROP5           GR         BLKP         HKLA         SWOB         SHKL         SHKL       SHKRSK   SHOCKS_ACC         STOR      VIB_LAT        VIB_X         CRPM          RPM   STICKNSLIP         TFLO         SPPA         TRPM          ECD         DHAT         DHAP 
#                  (DRILLING_)       (ARC9)  (DRILLING_)  (DRILLING_)  (DRILLING_)       (ARC9)  (SONICVISI)    (TELE900)    (TELE900)  (DRILLING_)    (TELE900)    (TELE900)    (TELE900)  (DRILLING_)    (TELE900)  (DRILLING_)  (DRILLING_)    (TELE900)       (ARC9)       (ARC9)       (ARC9) 
#                         (RT)         (RM)         (RT)         (RT)         (RT)         (RM)         (RM)         (RM)         (RM)         (RT)         (RM)         (RM)         (RM)         (RT)         (RM)         (RT)         (RT)         (RM)         (RM)         (RM)         (RM) 
#                        (6in)        (6in)        (6in)        (6in)        (6in)        (6in)        (6in)        (6in)        (6in)        (6in)        (6in)        (6in)        (6in)        (6in)        (6in)        (6in)        (6in)        (6in)        (6in)        (6in)        (6in) 
~ASCII
# ...
       3400.04400     20.08037    139.88080     11.20706    597.57531     18.67963      0.00000      0.00000      -999.25      -999.25     15.94000      -999.25      -999.25      -999.25    155.00000      -999.25   1216.43774   3733.42511      -999.25      1.28614     64.00000   6213.99974
       3400.19640     20.94022    137.73080     11.02462    598.98053     17.66498      0.00000      0.00000      -999.25      -999.25     13.59000      0.49966      0.12492      -999.25    162.00000      -999.25   1216.43774   3739.85898      -999.25      1.28736     64.00000   6219.99995
       3400.34880     21.65079    135.05440     10.81480    605.00378     10.83243      0.00000      0.00000      -999.25      -999.25     15.73000      0.58294      0.12492      -999.25    162.00000      -999.25   1216.43774   3721.03308      -999.25      1.28664     64.00000   6217.00057
       3400.50120     22.96564    136.67410     10.78443    608.96439      6.44037      0.00000      0.00000      -999.25      -999.25     16.62000      -999.25      -999.25      -999.25    134.00000    156.00000   1221.42293   3744.44073      -999.25      1.28472     64.00000   6207.99952
       3400.65360     23.93154    134.60690     10.47929    596.24283     19.89887      0.00000      0.00000      0.00000      0.00000     25.36000      0.62458      0.12492    171.00000    133.00000      -999.25   1221.42293   3745.30950   3551.00000      1.28758     64.00000   6222.00002
       3400.80600     22.42787    127.41840     10.40644    603.43762     12.76727      0.00000      0.00000      -999.25      -999.25     15.92000      0.62458      0.12492      -999.25    159.00000      -999.25   1216.43774   3740.29265      -999.25      1.28543     64.00000   6211.99967
       3400.95840     21.00295    131.95210     10.24693    607.48442      8.54682      0.00000      0.00000      -999.25      -999.25     22.59000      0.74949      0.12492      -999.25    138.00000      -999.25   1216.43774   3719.65958      -999.25      1.28497     64.00000   6209.99960
       3401.11080     21.44169    140.07100     10.13827    603.36597     12.46812      0.00000      0.00000      -999.25      -999.25     16.56000      0.74949      0.12492      -999.25    137.00000    162.00000   1216.43774   3723.67712      -999.25      1.28719     64.00000   6221.00071
       3401.26320     21.48389    131.75850      9.91718    604.42309     11.48024      0.00000      0.00000      -999.25      -999.25     19.48000      0.74949      0.12492      -999.25    152.00000      -999.25   1216.43774   3727.93398      -999.25      1.28713     64.00000   6221.00071
       3401.41560     20.81776    123.60770      9.81419    599.27287     16.61025      0.00000      0.00000      0.00000      0.00000     18.03000      0.62458      0.12492    149.00000    151.00000      -999.25   1216.43774   3724.68804   3550.00000      1.28562     64.00000   6213.99974
       3401.56800     19.66861    126.88200      9.63420    604.24165     11.51699      0.00000      0.00000      -999.25      -999.25     16.55000      0.74949      0.12492      -999.25    160.00000      -999.25   1216.43774   3739.09028      -999.25      1.28618     64.00000   6217.00057
       3401.72040     19.96047    132.93240      9.49233    601.56391     14.04269      0.00000      0.00000      -999.25      -999.25     14.26000      0.74949      0.12492      -999.25    152.00000      -999.25   1216.43774   3747.41545      -999.25      1.28840     64.00000   6228.00023
       3401.87280     21.20127    136.27540      9.31971    609.97411      5.44688      0.00000      0.00000      -999.25      -999.25     17.76000      0.74949      0.12492      -999.25    129.00000      -999.25   1216.43774   3726.21528      -999.25      1.28668     64.00000   6219.99995
       3402.02520     22.48029    132.95800      9.20284    593.34508     22.81542      0.00000      0.00000      0.00000      0.00000     14.60000      0.74949      0.12492     89.00000    162.00000    162.00000   1216.43774   3742.95409   3569.00000      1.28726     64.00000   6222.99933
       3402.17760     20.66384    134.04370      9.12278    598.53630     16.88527      0.00000      0.00000      -999.25      -999.25     15.97000      0.74949      0.12492      -999.25    137.00000      -999.25   1216.43774   3722.67636      -999.25      1.28699     64.00000   6222.00002
       3402.33000     21.58551    137.32400      8.90184    599.40448     16.60757      0.00000      0.00000      -999.25      -999.25     12.26000      0.74949      0.12492      -999.25    147.00000      -999.25   1211.45228   3738.48983      -999.25      1.28568     64.00000   6215.99981
       3402.48240     20.58528    128.06320      8.76741    609.37996      7.02583      0.00000      0.00000      -999.25      -999.25      7.85000      0.74949      0.12492      -999.25    144.00000    141.00000   1216.43774   3731.60198      -999.25      1.28666     64.00000   6221.00071
       3402.63480     20.44111    115.41100      8.60644    604.13648     10.28156      0.00000      0.00000      0.00000      0.00000     22.31000      0.74949      0.12492    161.00000    138.00000      -999.25   1226.40838   3732.14007   3560.00000      1.28724     64.00000   6224.00009
       3402.78720     20.12925    111.37250      8.44019    601.97573     14.04054      0.00000      0.00000      -999.25      -999.25     18.94000      0.74949      0.12492      -999.25    131.00000      -999.25   1221.42293   3736.07205      -999.25      1.28655     64.00000   6221.00071
       3402.93960     18.20483    113.22350      8.38942    596.51114     12.72326      0.00000      0.00000      -999.25      -999.25     29.26000      0.81195      0.12492      -999.25    117.00000      -999.25   1221.42293   3727.83245      -999.25      1.28649     64.00000   6221.00071
       3403.09200     18.06226    113.07520      8.15959    602.12609     13.96951      0.00000      0.00000      0.00000      0.00000     24.73000      0.99932      0.12492     60.00000    132.00000    177.00000   1221.42293   3715.92776   3575.00000      1.28664     64.00000   6222.00002
       3403.24440     17.20166    116.65200      7.99018    595.92912     19.46212      0.00000      0.00000      -999.25      -999.25     19.88000      0.74949      0.12492      -999.25    157.00000      -999.25   1221.42293   3758.24542      -999.25      1.28515     64.00000   6215.00050
       3403.39680     16.44208    129.84160      7.76557    607.86693      7.95072      0.00000      0.00000      -999.25      -999.25     21.95000      0.74949      0.12492      -999.25    159.00000      -999.25   1221.42293   3734.01686      -999.25      1.28611     64.00000   6219.99995
       3403.54920     16.26015    136.33070      7.70069    602.38668     13.87341      0.00000      0.00000      -999.25      -999.25     20.58000      0.74949      0.12492      -999.25    146.00000      -999.25   1221.42293   3743.85042      -999.25      1.28710     64.00000   6224.99940
       3403.70160     16.63173    131.57460      7.48344    602.68584     13.81699      0.00000      0.00000      0.00000      0.00000     12.54000      0.74949      0.12492    133.00000    162.00000    111.00000   1216.43774   3755.51146   3556.00000      1.28683     64.00000   6224.00009
       3403.85400     16.42076    125.90150      7.40337    600.37937     15.55421      0.00000      0.00000      -999.25      -999.25     13.54000      0.74949      0.12492      -999.25    143.00000      -999.25   1216.43774   3734.75075      -999.25      1.28656     64.00000   6222.99933
       3404.00640     17.46021    125.72640      7.18252    602.78527     13.11763      0.00000      -999.25      -999.25      -999.25     19.68000      0.74949      0.12492      -999.25    160.00000      -999.25   1216.43774   3721.10270      -999.25      1.28651     64.00000   6222.99933
       3404.15880     16.80901    127.12500      7.07569    603.17527     12.59616      0.00000      0.00000      -999.25      -999.25     22.55000      0.74949      0.12492      -999.25    131.00000      -999.25   1216.43774   3711.28655      -999.25      1.28749     64.00000   6228.00023
