~VERSION INFORMATION 
VERS  .    2.0                                     :CWLS Log ASCII Standard - VERSION 2.0
WRAP  .    NO                                      :One Line per Depth step
PROD  .    Schlumberger Technology Corp.           :LAS Producer
PROG  .    Horizon LASWriter 10.1.205256.3100      :LAS Program name and version
SOURCE.    Run5_16.5in-Drilling                    :Run&Pass Information
CREA  .    01/07/2021                              :LAS Creation date {MM/DD/YYYY}
#--------------------------------------------------
~WELL INFORMATION 
#MNEM           .UNIT                      DATA            :DESCRIPTION
#----            ------          --------------            -----------------------------
STRT            .m                   2934.91920            :START DEPTH
STOP            .m                   3810.30480            :STOP DEPTH
STEP            .m                       0.1524            :STEP
NULL            .                       -999.25            :NULL VALUE
COMP            .                BP Development Australia Pty Ltd:COMPANY
WELL            .                    Ironbark-1            :WELL NAME
FLD             .                      Ironbark            :FIELD NAME
RIGN            .                    Ocean Apex            :Rig Name
RIGTYP          .                Semi-Submersible          :Rig Type
SON             .                     20AWA0029            :Service Order Number
SRVC            .                  Schlumberger            :SERVICE COMPANY
DATE            .                    11/27/2020            :LOG DATE(Composite Date for Composite LAP) (MM/DD/YYYY)
CLAB            .                       County:            :County Label
CNTY            .                                          :COUNTY
SLAB            .                        State:            :State/Province Label
STAT            .                Western Australia         :STATE or PROVINCE
PROV            .                Western Australia         :STATE or PROVINCE
CTRY            .                     Australia            :COUNTRY
CONT_REGION     .                   Australasia            :Continent Region
SECT            .                                          :Section
TOWN            .                                          :Township
RANG            .                                          :Range
API             .                                          :API NUMBER
UWI             .                     20AWA0029            :UNIQUE WELL ID
LUL             .                 Portside Deck            :Logging Unit Location
LUN             .                       1010979            :Logging Unit Number
LOC             .                      WA-359-P            :FIELD LOCATION
FL1             .                Northing: 7,881,270.990 m :Field Location Line 1
FL2             .                Easting: 402,902.910 m    :Field Location Line 2
LATI            .deg             19° 9' 34.079" S          :LATITUDE
LONG            .deg             116° 4' 35.795" E         :LONGITUDE
PDAT            .                           MSL            :Local Permanent Datum
LMF             .                            DF            :Logging Measured From
APD             .m                     23.85000            :Elevation of Depth Reference (LMF) Above Permanent Datum
EPD             .m                      0.00000            :Elevation of Permanent Datum (PDAT) above Mean Sea Level
EKB             .m                      -999.25            :Elevation of Kelly Bushing Above Permanent Datum
EDF             .m                     23.85000            :Elevation of Drill Floor Above Permanent Datum
EGL             .m                   -300.95000            :Elevation of Ground Level Above Permanent Datum
ECF             .m                      -999.25            :Elevation of Casing Flange above Permanent Datum
#--------------------------------------------------
~CURVE INFORMATION
#MNEM           .UNIT                  API CODE            :DESCRIPTION
#----            ------          --------------            -----------------------------
DEPT            .m                                         :                                                        Depth Index
ROP5            .m/h                                       :(RT)    (DRILLING_SURFACE)      (6in)                   Rate of penetration averaged over the last 5 ft (1.5 m)
GR              .gAPI                                      :(RM)    (ARC9)                  (6in)                   Gamma Ray
BLKP            .m                                         :(RT)    (DRILLING_SURFACE)      (6in)                   Height of block above rig floor
HKLA            .1000 lbf                                  :(RT)    (DRILLING_SURFACE)      (6in)                   Average Hookload
SWOB            .1000 lbf                                  :(RT)    (DRILLING_SURFACE)      (6in)                   Surface Weight On Bit
SHKL            .                                          :(RM)    (ARC9)                  (6in)                   Tool Shock Level
SHKL            .                                          :(RM)    (SONICVISION9)          (6in)                   Tool Shock Level
SHKRSK          .                                          :(RM)    (TELE900)               (6in)                   Shock Risk
SHOCKS_ACC      .                                          :(RM)    (TELE900)               (6in)                   Total Shocks accumulated over tool lifetime
STOR            .1000 ft.lbf                               :(RT)    (DRILLING_SURFACE)      (6in)                   Surface Torque
VIB_LAT         .gn                                        :(RM)    (TELE900)               (6in)                   Transverse RMS Vibration
VIB_X           .gn                                        :(RM)    (TELE900)               (6in)                   RMS Vibration, X-Axis
CRPM            .c/min                                     :(RM)    (TELE900)               (6in)                   Collar Rotational Speed
RPM             .c/min                                     :(RT)    (DRILLING_SURFACE)      (6in)                   Rotational Speed
STICKNSLIP      .c/min                                     :(RM)    (TELE900)               (6in)                   Stick Slip Indicator
TFLO            .gal/min                                   :(RT)    (DRILLING_SURFACE)      (6in)                   Total flow rate of all active pumps
SPPA            .psi                                       :(RT)    (DRILLING_SURFACE)      (6in)                   Standpipe Pressure
TRPM            .c/min                                     :(RM)    (TELE900)               (6in)                   MWD Turbine Rotation Speed
ECD             .g/cm3                                     :(RM)    (ARC9)                  (6in)                   Equivalent Circulating Density
DHAT            .degC                                      :(RM)    (ARC9)                  (6in)                   Downhole Annulus Temperature
DHAP            .psi                                       :(RM)    (ARC9)                  (6in)                   Downhole Annulus Pressure
#-------------------------------------------------------------
#            DEPT         ROP5           GR         BLKP         HKLA         SWOB         SHKL         SHKL       SHKRSK   SHOCKS_ACC         STOR      VIB_LAT        VIB_X         CRPM          RPM   STICKNSLIP         TFLO         SPPA         TRPM          ECD         DHAT         DHAP 
#                  (DRILLING_)       (ARC9)  (DRILLING_)  (DRILLING_)  (DRILLING_)       (ARC9)  (SONICVISI)    (TELE900)    (TELE900)  (DRILLING_)    (TELE900)    (TELE900)    (TELE900)  (DRILLING_)    (TELE900)  (DRILLING_)  (DRILLING_)    (TELE900)       (ARC9)       (ARC9)       (ARC9) 
#                         (RT)         (RM)         (RT)         (RT)         (RT)         (RM)         (RM)         (RM)         (RM)         (RT)         (RM)         (RM)         (RM)         (RT)         (RM)         (RT)         (RT)         (RM)         (RM)         (RM)         (RM) 
#                        (6in)        (6in)        (6in)        (6in)        (6in)        (6in)        (6in)        (6in)        (6in)        (6in)        (6in)        (6in)        (6in)        (6in)        (6in)        (6in)        (6in)        (6in)        (6in)        (6in)        (6in) 
~ASCII
# ...
       3805.42800      6.32325      -999.25     23.69103    626.40935     24.42967      -999.25      -999.25      0.00000      0.00000     11.48000      1.37407      0.12492    177.00000    184.00000    303.00000   1217.57579   3969.21731   3556.00000      -999.25      -999.25      -999.25
       3805.58040      6.07455      -999.25     23.56043    629.32121     21.46411      -999.25      -999.25      -999.25      -999.25      9.46000      1.24915      0.12492      -999.25    214.00000      -999.25   1222.58634   3981.84865      -999.25      -999.25      -999.25      -999.25
       3805.73280      6.34188      -999.25     23.45230    625.93425     25.21568      -999.25      -999.25      0.00000      0.00000      9.60000      1.24915      0.12492    168.00000    214.00000    234.00000   1222.58634   3962.46870   3547.00000      -999.25      -999.25      -999.25
       3805.88520      6.50143      -999.25     23.32623    624.04952     26.26640      -999.25      -999.25      -999.25      -999.25     18.94000      1.37407      0.12492      -999.25    170.00000      -999.25   1217.57579   3973.08112      -999.25      -999.25      -999.25      -999.25
       3806.03760      6.90309      -999.25     23.14992    615.04915     31.98658      -999.25      -999.25      0.00000      0.00000     11.05000      1.41571      0.15267    178.00000    186.00000    208.50000   1217.57579   3994.51479   3550.00000      -999.25      -999.25      -999.25
       3806.19000      6.02385      -999.25     22.99617    623.58015     26.42322      -999.25      -999.25      -999.25      -999.25     14.85000      1.31161      0.12492      -999.25    183.00000     72.00000   1217.57579   3973.92233      -999.25      -999.25      -999.25      -999.25
       3806.34240      5.94042      -999.25     22.89992    630.45262     20.13730      -999.25      -999.25      0.00000      0.00000     14.60000      1.34908      0.12492    149.00000    178.00000      -999.25   1217.57579   3976.12691   3562.00000      -999.25      -999.25      -999.25
       3806.49480      5.84564      -999.25     22.73849    624.64763     25.67025      -999.25      -999.25      0.00000      0.00000     15.96000      1.34908      0.12492    210.00000    179.00000    147.00000   1217.57579   3972.79684   3587.00000      -999.25      -999.25      -999.25
       3806.64720      5.97910      -999.25     22.56503    628.70678     21.64173      -999.25      -999.25      -999.25      -999.25     13.07000      1.31161      0.12492      -999.25    197.00000    378.00000   1217.57579   3973.96875      -999.25      -999.25      -999.25      -999.25
       3806.79960      6.02370      -999.25     22.43405    622.16302     25.98009      -999.25      -999.25      0.00000      0.00000      8.98000      1.24915      0.12492     43.00000    206.00000      -999.25   1217.57579   3970.08754   3566.00000      -999.25      -999.25      -999.25
       3806.95200      6.29518      -999.25     22.28290    625.49796     25.33912      -999.25      -999.25      -999.25      -999.25     11.88000      1.33243      0.12492      -999.25    192.00000    348.00000   1212.56524   3996.46120      -999.25      -999.25      -999.25      -999.25
       3807.10440      6.60585      -999.25     22.15583    627.87630     21.98641      -999.25      -999.25      0.00000      0.00000     13.79000      1.37407      0.24983    179.00000    193.00000      -999.25   1217.57579   3974.66203   3545.00000      -999.25      -999.25      -999.25
       3807.25680      6.74413      -999.25     22.00077    620.20532     27.35893      -999.25      -999.25      0.00000      0.00000     11.36000      1.33243      0.12492    189.00000    184.00000    231.00000   1227.59689   3977.13637   3548.00000      -999.25      -999.25      -999.25
       3807.40920      5.99912      -999.25     21.87002    629.04255     21.44695      -999.25      -999.25      0.00000      0.00000     11.48000      1.38795      0.12492    177.00000    183.00000    105.00000   1232.60744   4163.94788   3523.00000      -999.25      -999.25      -999.25
       3807.56160      6.43455      -999.25     21.69432    617.52428     32.22437      -999.25      -999.25      0.00000      0.00000     15.62000      1.54895      0.12492    199.00000    171.00000    381.00000   1227.59689   4075.10646   3591.00000      -999.25      -999.25      -999.25
       3807.71400      6.72932      -999.25     21.53382    627.61616     22.92104      -999.25      -999.25      -999.25      -999.25     18.33000      1.29912      0.12492      -999.25    176.00000      -999.25   1222.58634   4025.62684      -999.25      -999.25      -999.25      -999.25
       3807.86640      7.23284      -999.25     21.45360    625.01779     25.07357      -999.25      -999.25      0.00000      0.00000     14.18000      1.24915      0.12492    201.00000    180.00000    138.00000   1227.59689   4089.29260   3583.00000      -999.25      -999.25      -999.25
       3808.01880      7.41218      -999.25     21.28474    626.42279     23.63774      -999.25      -999.25      -999.25      -999.25     15.34000      1.24915      0.12492      -999.25    190.00000      -999.25   1227.59689   4045.28090      -999.25      -999.25      -999.25      -999.25
       3808.17120      7.25894      -999.25     21.13727    627.39966     22.75938      -999.25      -999.25      0.00000      0.00000     15.34000      1.38795      0.13879    176.00000    179.00000    220.50000   1222.58634   3964.97351   3583.00000      -999.25      -999.25      -999.25
       3808.32360      6.37891      -999.25     20.98880    632.59331     18.01264      -999.25      -999.25      0.00000      0.00000     12.40000      1.33243      0.12492    195.00000    186.00000      -999.25   1227.59689   4055.23339   3581.00000      -999.25      -999.25      -999.25
       3808.47600      6.70966      -999.25     20.87960    621.55807     30.35038      -999.25      -999.25      0.00000      0.00000     12.08000      1.64888      0.19986    169.00000    180.00000    105.00000   1227.59689   4061.45116   3553.00000      -999.25      -999.25      -999.25
       3808.62840      6.04365      -999.25     20.75338    625.84915     24.67960      -999.25      -999.25      0.00000      0.00000     18.82000      1.70718      0.24983    165.00000    172.00000    108.00000   1227.59689   4064.81458   3594.00000      -999.25      -999.25      -999.25
       3808.78080      6.00426      -999.25     20.54387    626.25855     24.56748      -999.25      -999.25      -999.25      -999.25     38.46000      1.74881      0.12492      -999.25    149.00000      -999.25   1227.59689   4071.11357      -999.25      -999.25      -999.25      -999.25
       3808.93320      6.66912      -999.25     20.45399    627.58265     22.44952      -999.25      -999.25      0.00000      0.00000     14.18000      1.49898      0.12492    170.00000    188.00000    348.00000   1227.59689   4169.04886   3554.00000      -999.25      -999.25      -999.25
       3809.08560      6.29276      -999.25     20.30683    631.93656     17.43771      -999.25      -999.25      0.00000      0.00000     13.84000      1.49898      0.12492    178.00000    184.00000     90.00000   1227.59689   4128.57607   3561.00000      -999.25      -999.25      -999.25
       3809.23800      6.44374      -999.25     20.16334    622.70492     28.05565      -999.25      -999.25      0.00000      0.00000     17.12000      1.49898      0.12492    170.00000    174.00000      -999.25   1227.59689   4173.04464   3570.00000      -999.25      -999.25      -999.25
       3809.39040      5.37965      -999.25     20.02838    621.75451     29.53299      -999.25      -999.25      0.00000      0.00000     12.69000      1.54441      0.14763    174.00000    182.00000     90.00000   1217.57579   4098.91441   3569.00000      -999.25      -999.25      -999.25
       3809.54280      4.49953      -999.25     19.91488    614.75329     35.99472      -999.25      -999.25      0.00000      0.00000     13.56000      1.73632      0.24983    160.00000    180.00000     66.60000   1217.57579   4314.60003   3551.00000      -999.25      -999.25      -999.25
