~VERSION INFORMATION 
VERS  .    2.0                                     :CWLS Log ASCII Standard - VERSION 2.0
WRAP  .    NO                                      :One Line per Depth step
PROD  .    Schlumberger Technology Corp.           :LAS Producer
PROG  .    Horizon LASWriter 10.1.205256.3100      :LAS Program name and version
SOURCE.    Run5_16.5in-Drilling                    :Run&Pass Information
CREA  .    01/07/2021                              :LAS Creation date {MM/DD/YYYY}
#--------------------------------------------------
~WELL INFORMATION 
#MNEM           .UNIT                      DATA            :DESCRIPTION
#----            ------          --------------            -----------------------------
STRT            .m                   2934.91920            :START DEPTH
STOP            .m                   3810.30480            :STOP DEPTH
STEP            .m                       0.1524            :STEP
NULL            .                       -999.25            :NULL VALUE
COMP            .                BP Development Australia Pty Ltd:COMPANY
WELL            .                    Ironbark-1            :WELL NAME
FLD             .                      Ironbark            :FIELD NAME
RIGN            .                    Ocean Apex            :Rig Name
RIGTYP          .                Semi-Submersible          :Rig Type
SON             .                     20AWA0029            :Service Order Number
SRVC            .                  Schlumberger            :SERVICE COMPANY
DATE            .                    11/27/2020            :LOG DATE(Composite Date for Composite LAP) (MM/DD/YYYY)
CLAB            .                       County:            :County Label
CNTY            .                                          :COUNTY
SLAB            .                        State:            :State/Province Label
STAT            .                Western Australia         :STATE or PROVINCE
PROV            .                Western Australia         :STATE or PROVINCE
CTRY            .                     Australia            :COUNTRY
CONT_REGION     .                   Australasia            :Continent Region
SECT            .                                          :Section
TOWN            .                                          :Township
RANG            .                                          :Range
API             .                                          :API NUMBER
UWI             .                     20AWA0029            :UNIQUE WELL ID
LUL             .                 Portside Deck            :Logging Unit Location
LUN             .                       1010979            :Logging Unit Number
LOC             .                      WA-359-P            :FIELD LOCATION
FL1             .                Northing: 7,881,270.990 m :Field Location Line 1
FL2             .                Easting: 402,902.910 m    :Field Location Line 2
LATI            .deg             19° 9' 34.079" S          :LATITUDE
LONG            .deg             116° 4' 35.795" E         :LONGITUDE
PDAT            .                           MSL            :Local Permanent Datum
LMF             .                            DF            :Logging Measured From
APD             .m                     23.85000            :Elevation of Depth Reference (LMF) Above Permanent Datum
EPD             .m                      0.00000            :Elevation of Permanent Datum (PDAT) above Mean Sea Level
EKB             .m                      -999.25            :Elevation of Kelly Bushing Above Permanent Datum
EDF             .m                     23.85000            :Elevation of Drill Floor Above Permanent Datum
EGL             .m                   -300.95000            :Elevation of Ground Level Above Permanent Datum
ECF             .m                      -999.25            :Elevation of Casing Flange above Permanent Datum
#--------------------------------------------------
~CURVE INFORMATION
#MNEM           .UNIT                  API CODE            :DESCRIPTION
#----            ------          --------------            -----------------------------
DEPT            .m                                         :                                                        Depth Index
ROP5            .m/h                                       :(RT)    (DRILLING_SURFACE)      (6in)                   Rate of penetration averaged over the last 5 ft (1.5 m)
GR              .gAPI                                      :(RM)    (ARC9)                  (6in)                   Gamma Ray
BLKP            .m                                         :(RT)    (DRILLING_SURFACE)      (6in)                   Height of block above rig floor
HKLA            .1000 lbf                                  :(RT)    (DRILLING_SURFACE)      (6in)                   Average Hookload
SWOB            .1000 lbf                                  :(RT)    (DRILLING_SURFACE)      (6in)                   Surface Weight On Bit
SHKL            .                                          :(RM)    (ARC9)                  (6in)                   Tool Shock Level
SHKL            .                                          :(RM)    (SONICVISION9)          (6in)                   Tool Shock Level
SHKRSK          .                                          :(RM)    (TELE900)               (6in)                   Shock Risk
SHOCKS_ACC      .                                          :(RM)    (TELE900)               (6in)                   Total Shocks accumulated over tool lifetime
STOR            .1000 ft.lbf                               :(RT)    (DRILLING_SURFACE)      (6in)                   Surface Torque
VIB_LAT         .gn                                        :(RM)    (TELE900)               (6in)                   Transverse RMS Vibration
VIB_X           .gn                                        :(RM)    (TELE900)               (6in)                   RMS Vibration, X-Axis
CRPM            .c/min                                     :(RM)    (TELE900)               (6in)                   Collar Rotational Speed
RPM             .c/min                                     :(RT)    (DRILLING_SURFACE)      (6in)                   Rotational Speed
STICKNSLIP      .c/min                                     :(RM)    (TELE900)               (6in)                   Stick Slip Indicator
TFLO            .gal/min                                   :(RT)    (DRILLING_SURFACE)      (6in)                   Total flow rate of all active pumps
SPPA            .psi                                       :(RT)    (DRILLING_SURFACE)      (6in)                   Standpipe Pressure
TRPM            .c/min                                     :(RM)    (TELE900)               (6in)                   MWD Turbine Rotation Speed
ECD             .g/cm3                                     :(RM)    (ARC9)                  (6in)                   Equivalent Circulating Density
DHAT            .degC                                      :(RM)    (ARC9)                  (6in)                   Downhole Annulus Temperature
DHAP            .psi                                       :(RM)    (ARC9)                  (6in)                   Downhole Annulus Pressure
#-------------------------------------------------------------
#            DEPT         ROP5           GR         BLKP         HKLA         SWOB         SHKL         SHKL       SHKRSK   SHOCKS_ACC         STOR      VIB_LAT        VIB_X         CRPM          RPM   STICKNSLIP         TFLO         SPPA         TRPM          ECD         DHAT         DHAP 
#                  (DRILLING_)       (ARC9)  (DRILLING_)  (DRILLING_)  (DRILLING_)       (ARC9)  (SONICVISI)    (TELE900)    (TELE900)  (DRILLING_)    (TELE900)    (TELE900)    (TELE900)  (DRILLING_)    (TELE900)  (DRILLING_)  (DRILLING_)    (TELE900)       (ARC9)       (ARC9)       (ARC9) 
#                         (RT)         (RM)         (RT)         (RT)         (RT)         (RM)         (RM)         (RM)         (RM)         (RT)         (RM)         (RM)         (RM)         (RT)         (RM)         (RT)         (RT)         (RM)         (RM)         (RM)         (RM) 
#                        (6in)        (6in)        (6in)        (6in)        (6in)        (6in)        (6in)        (6in)        (6in)        (6in)        (6in)        (6in)        (6in)        (6in)        (6in)        (6in)        (6in)        (6in)        (6in)        (6in)        (6in) 
~ASCII
# ...
       3574.99920     11.90784    126.85610      3.65994    612.33063     23.79434      0.00000      0.00000      0.00000      0.00000     12.39000      1.12424      0.12492    128.00000    155.00000    186.00000   1206.46683   3891.73960   3543.00000      1.32049     68.00000   6707.99972
       3575.15160     13.51068    110.05490      3.52562    608.18990     27.84258      0.00000      0.00000      -999.25      -999.25     15.64000      0.99932      0.12492      -999.25    156.00000      -999.25   1206.46683   3900.32003      -999.25      1.31883     68.00000   6700.00089
       3575.30400     13.89964     98.59504      3.34713    607.46635     28.46122      0.00000      0.00000      -999.25      -999.25     16.83000      0.99932      0.12492      -999.25    147.00000      -999.25   1206.46683   3893.85425      -999.25      1.31936     68.00000   6703.00027
       3575.45640     14.47753     86.59438      3.23509    605.74696     29.11599      0.00000      0.00000      -999.25      -999.25     11.21000      1.12424      0.12492      -999.25    170.00000      -999.25   1206.46683   3899.50927      -999.25      1.31914     68.00000   6701.99951
       3575.60880     14.94753     78.75170      3.00699    612.24398     24.98951      0.00000      0.00000      -999.25      -999.25     15.09000      0.99932      0.12492      -999.25    166.00000    132.00000   1206.46683   3897.49615      -999.25      1.31965     68.00000   6705.00034
       3575.76120     16.77399     81.14771      2.87741    608.90023     26.53570      0.00000      0.00000      0.00000      0.00000     15.17000      0.99932      0.12492    185.00000    145.00000      -999.25   1206.46683   3909.59955   3547.00000      1.32198     68.00000   6717.00076
       3575.91360     16.81599     99.97031      2.72593    610.99396     26.09391      0.00000      0.00000      -999.25      -999.25     25.77000      0.99932      0.12492      -999.25    173.00000      -999.25   1206.46683   3897.74851      -999.25      1.32091     68.00000   6711.99986
       3576.06600     17.36791    121.69020      2.54200    609.01840     28.90983      0.00000      0.00000      -999.25      -999.25      6.46000      0.99932      0.12492      -999.25    158.00000      -999.25   1206.46683   3904.16789      -999.25      1.32006     68.00000   6707.99972
       3576.21840     19.47433    120.36800      2.43634    607.63676     28.34380      0.00000      0.00000      0.00000      0.00000     14.99000      1.24915      0.16655    160.00000    136.00000    162.00000   1211.45228   3915.37785   3547.00000      1.31982     68.00000   6707.00041
       3576.37080     14.53110    110.99530      2.24845    617.69558     18.81686      0.00000      0.00000      -999.25      -999.25     19.22000      1.29912      0.47468      -999.25    141.00000    159.00000   1211.45228   3911.99412      -999.25      1.31975     68.00000   6707.00041
       3576.52320     13.69717    127.59520      2.07686    612.35510     23.50322      0.00000      0.00000      0.00000      0.00000     18.79000      1.12424      0.12492     58.00000    148.00000      -999.25   1211.45228   3914.20015   3551.00000      1.31990     68.00000   6707.99972
       3576.67560     12.50351    153.55950      1.93905    610.07067     25.22276      0.00000      0.00000      0.00000      0.00000     12.39000      0.99932      0.12492    183.00000    156.00000    213.00000   1211.45228   3918.63540   3536.00000      1.32024     68.00000   6709.99979
       3576.82800     10.62962    152.83750      1.80800    607.64183     28.39307      0.00000      0.00000      0.00000      0.00000     12.06000      1.04096      0.12492    195.00000    154.00000     51.00000   1206.46683   3876.17560   3534.00000      1.31978     68.00000   6707.99972
       3576.98040     10.10932    139.13560      1.61103    613.24665     29.19518      0.00000      0.00000      -999.25      -999.25     18.66000      1.18669      0.12492      -999.25    166.00000      -999.25   1206.46683   3872.98042      -999.25      1.32110     68.00000   6715.00069
       3577.13280      8.82023    131.16060      1.45163    609.72851     25.91613      0.00000      0.00000      0.00000      0.00000     13.88000      1.17777      0.21414    160.00000    156.00000     69.00000   1206.46683   3866.29273   3532.00000      1.31868     68.00000   6703.00027
       3577.28520      8.05078    124.19310      1.30303    608.00979     27.78572      0.00000      0.00000      0.00000      0.00000     12.09000      1.24915      0.16655    121.00000    159.00000     48.00000   1211.45228   3876.36125   3529.00000      1.31923     68.00000   6705.99965
       3577.43760      7.41045    120.65350      1.15699    612.66352     23.00153      0.00000      0.00000      -999.25      -999.25     16.25000      1.18669      0.12492      -999.25    151.00000      -999.25   1206.46683   3867.86059      -999.25      1.31838     68.00000   6701.99951
       3577.59000      7.27005    126.63740      1.01304    605.29325     30.22132      0.00000      0.00000      0.00000      0.00000     14.47000      0.99932      0.12492    176.00000    141.00000    156.00000   1206.46683   3889.24350   3522.00000      1.31891     68.00000   6705.00034
       3577.74240      6.89727    142.84880      0.80124    609.74350     25.54745      0.00000      0.00000      0.00000      0.00000     19.70000      1.33243      0.47884    147.00000    144.00000    129.00000   1206.46683   3879.39399   3531.00000      1.32181     68.00000   6720.00014
       3577.89480      6.68232    155.65090      0.69146    598.67894     37.52389      0.00000      0.00000      0.00000      0.00000     12.07000      1.74881      0.81195    130.33330    158.00000    105.00000   1206.46683   3871.76210   3536.00000      1.31998     68.00000   6710.99910
       3578.04720      4.87270    150.78670     28.68183    631.36159      5.21250      0.00000      0.00000      -999.25      -999.25      8.25000      1.24915      0.14990      -999.25    151.00000      -999.25   1201.48137   3904.53483      -999.25      1.31973     68.00000   6709.99979
       3578.19960      5.08466    130.74770     28.53323    635.03603      0.89283      0.00000      0.00000      -999.25      -999.25      7.91000      1.24915      0.12492      -999.25    151.00000      -999.25   1201.48137   3883.42604      -999.25      1.31888     68.00000   6705.99965
       3578.35200      5.52163    105.14720     28.33882    627.59587      9.40796      0.00000      0.00000      -999.25      -999.25      5.62000      1.24915      0.12492      -999.25    151.00000     96.00000   1201.48137   3882.47459      -999.25      1.32218     68.00000   6722.99952
       3578.50440      5.59863     98.10751     28.16025    626.11084     10.37447      0.00000      0.00000      0.00000      0.00000     10.87000      1.08260      0.12492    108.00000    151.00000      -999.25   1201.48137   3884.62405   3518.00000      1.31898     68.00000   6707.00041
       3578.65680      5.73568    124.45480     28.03269    616.48590     19.62502      0.00000      0.00000      -999.25      -999.25     16.04000      1.14922      0.14990      -999.25    149.00000     93.00000   1206.46683   3858.36497      -999.25      1.31930     68.00000   6709.00048
       3578.80920      6.07043    159.09460     27.92935    615.30687     20.37849      0.00000      0.00000      0.00000      0.00000     11.43000      1.12424      0.15614    142.00000    146.00000      -999.25   1206.46683   3866.25212   3503.00000      1.32143     68.00000   6720.00014
       3578.96160      6.14470    169.28920     27.75932    610.08786     25.14853      0.00000      0.00000      0.00000      0.00000      9.12000      1.09925      0.12492    155.00000    147.00000    258.00000   1201.48137   3875.56209   3509.00000      1.31959     68.00000   6710.99910
       3579.11400      5.89605    165.07810     27.60163    622.54641     14.12072      0.00000      0.00000      -999.25      -999.25     15.34000      0.99932      0.12492      -999.25    152.00000      -999.25   1206.46683   3870.14928      -999.25      1.31836     68.00000   6705.00034
