~VERSION INFORMATION 
VERS  .    2.0                                     :CWLS Log ASCII Standard - VERSION 2.0
WRAP  .    NO                                      :One Line per Depth step
PROD  .    Schlumberger Technology Corp.           :LAS Producer
PROG  .    Horizon LASWriter 10.1.205256.3100      :LAS Program name and version
SOURCE.    Run5_16.5in-Drilling                    :Run&Pass Information
CREA  .    01/07/2021                              :LAS Creation date {MM/DD/YYYY}
#--------------------------------------------------
~WELL INFORMATION 
#MNEM           .UNIT                      DATA            :DESCRIPTION
#----            ------          --------------            -----------------------------
STRT            .m                   2934.91920            :START DEPTH
STOP            .m                   3810.30480            :STOP DEPTH
STEP            .m                       0.1524            :STEP
NULL            .                       -999.25            :NULL VALUE
COMP            .                BP Development Australia Pty Ltd:COMPANY
WELL            .                    Ironbark-1            :WELL NAME
FLD             .                      Ironbark            :FIELD NAME
RIGN            .                    Ocean Apex            :Rig Name
RIGTYP          .                Semi-Submersible          :Rig Type
SON             .                     20AWA0029            :Service Order Number
SRVC            .                  Schlumberger            :SERVICE COMPANY
DATE            .                    11/27/2020            :LOG DATE(Composite Date for Composite LAP) (MM/DD/YYYY)
CLAB            .                       County:            :County Label
CNTY            .                                          :COUNTY
SLAB            .                        State:            :State/Province Label
STAT            .                Western Australia         :STATE or PROVINCE
PROV            .                Western Australia         :STATE or PROVINCE
CTRY            .                     Australia            :COUNTRY
CONT_REGION     .                   Australasia            :Continent Region
SECT            .                                          :Section
TOWN            .                                          :Township
RANG            .                                          :Range
API             .                                          :API NUMBER
UWI             .                     20AWA0029            :UNIQUE WELL ID
LUL             .                 Portside Deck            :Logging Unit Location
LUN             .                       1010979            :Logging Unit Number
LOC             .                      WA-359-P            :FIELD LOCATION
FL1             .                Northing: 7,881,270.990 m :Field Location Line 1
FL2             .                Easting: 402,902.910 m    :Field Location Line 2
LATI            .deg             19° 9' 34.079" S          :LATITUDE
LONG            .deg             116° 4' 35.795" E         :LONGITUDE
PDAT            .                           MSL            :Local Permanent Datum
LMF             .                            DF            :Logging Measured From
APD             .m                     23.85000            :Elevation of Depth Reference (LMF) Above Permanent Datum
EPD             .m                      0.00000            :Elevation of Permanent Datum (PDAT) above Mean Sea Level
EKB             .m                      -999.25            :Elevation of Kelly Bushing Above Permanent Datum
EDF             .m                     23.85000            :Elevation of Drill Floor Above Permanent Datum
EGL             .m                   -300.95000            :Elevation of Ground Level Above Permanent Datum
ECF             .m                      -999.25            :Elevation of Casing Flange above Permanent Datum
#--------------------------------------------------
~CURVE INFORMATION
#MNEM           .UNIT                  API CODE            :DESCRIPTION
#----            ------          --------------            -----------------------------
DEPT            .m                                         :                                                        Depth Index
ROP5            .m/h                                       :(RT)    (DRILLING_SURFACE)      (6in)                   Rate of penetration averaged over the last 5 ft (1.5 m)
GR              .gAPI                                      :(RM)    (ARC9)                  (6in)                   Gamma Ray
BLKP            .m                                         :(RT)    (DRILLING_SURFACE)      (6in)                   Height of block above rig floor
HKLA            .1000 lbf                                  :(RT)    (DRILLING_SURFACE)      (6in)                   Average Hookload
SWOB            .1000 lbf                                  :(RT)    (DRILLING_SURFACE)      (6in)                   Surface Weight On Bit
SHKL            .                                          :(RM)    (ARC9)                  (6in)                   Tool Shock Level
SHKL            .                                          :(RM)    (SONICVISION9)          (6in)                   Tool Shock Level
SHKRSK          .                                          :(RM)    (TELE900)               (6in)                   Shock Risk
SHOCKS_ACC      .                                          :(RM)    (TELE900)               (6in)                   Total Shocks accumulated over tool lifetime
STOR            .1000 ft.lbf                               :(RT)    (DRILLING_SURFACE)      (6in)                   Surface Torque
VIB_LAT         .gn                                        :(RM)    (TELE900)               (6in)                   Transverse RMS Vibration
VIB_X           .gn                                        :(RM)    (TELE900)               (6in)                   RMS Vibration, X-Axis
CRPM            .c/min                                     :(RM)    (TELE900)               (6in)                   Collar Rotational Speed
RPM             .c/min                                     :(RT)    (DRILLING_SURFACE)      (6in)                   Rotational Speed
STICKNSLIP      .c/min                                     :(RM)    (TELE900)               (6in)                   Stick Slip Indicator
TFLO            .gal/min                                   :(RT)    (DRILLING_SURFACE)      (6in)                   Total flow rate of all active pumps
SPPA            .psi                                       :(RT)    (DRILLING_SURFACE)      (6in)                   Standpipe Pressure
TRPM            .c/min                                     :(RM)    (TELE900)               (6in)                   MWD Turbine Rotation Speed
ECD             .g/cm3                                     :(RM)    (ARC9)                  (6in)                   Equivalent Circulating Density
DHAT            .degC                                      :(RM)    (ARC9)                  (6in)                   Downhole Annulus Temperature
DHAP            .psi                                       :(RM)    (ARC9)                  (6in)                   Downhole Annulus Pressure
#-------------------------------------------------------------
#            DEPT         ROP5           GR         BLKP         HKLA         SWOB         SHKL         SHKL       SHKRSK   SHOCKS_ACC         STOR      VIB_LAT        VIB_X         CRPM          RPM   STICKNSLIP         TFLO         SPPA         TRPM          ECD         DHAT         DHAP 
#                  (DRILLING_)       (ARC9)  (DRILLING_)  (DRILLING_)  (DRILLING_)       (ARC9)  (SONICVISI)    (TELE900)    (TELE900)  (DRILLING_)    (TELE900)    (TELE900)    (TELE900)  (DRILLING_)    (TELE900)  (DRILLING_)  (DRILLING_)    (TELE900)       (ARC9)       (ARC9)       (ARC9) 
#                         (RT)         (RM)         (RT)         (RT)         (RT)         (RM)         (RM)         (RM)         (RM)         (RT)         (RM)         (RM)         (RM)         (RT)         (RM)         (RT)         (RT)         (RM)         (RM)         (RM)         (RM) 
#                        (6in)        (6in)        (6in)        (6in)        (6in)        (6in)        (6in)        (6in)        (6in)        (6in)        (6in)        (6in)        (6in)        (6in)        (6in)        (6in)        (6in)        (6in)        (6in)        (6in)        (6in) 
~ASCII
# ...
       3225.08880     29.55930    139.41120     17.71051    576.02270     21.67872      0.00000      0.00000      -999.25      -999.25     20.03000      0.24983      0.12492      -999.25    130.00000      -999.25   1251.33539   3906.86124      -999.25      1.29417     60.00000   5930.99920
       3225.24120     30.27948    146.44870     17.54394    573.66044     24.20193      0.00000      0.00000      -999.25      -999.25     20.30000      0.49966      0.12492      -999.25    130.00000      -999.25   1251.33539   3904.79880      -999.25      1.29453     60.00000   5932.99927
       3225.39360     29.74051    158.42340     17.39985    570.25739     28.18337      0.00000      0.00000      -999.25      -999.25     19.20000      0.49966      0.12492      -999.25    126.00000      -999.25   1246.34993   3900.84797      -999.25      1.29471     60.00000   5934.00003
       3225.54600     29.05380    159.27190     17.24064    579.52011     18.70569      0.00000      0.00000      -999.25      -999.25     20.58000      0.24983      0.12492      -999.25    128.00000     33.00000   1246.34993   3894.41990      -999.25      1.29377     60.00000   5929.99989
       3225.69840     28.92088    152.97450     17.10314    575.35955     22.85420      0.00000      0.00000      0.00000      0.00000     19.21000      0.24983      0.12492    129.00000    127.00000      -999.25   1251.33539   3903.65445   3603.00000      1.29412     60.00000   5931.99996
       3225.85080     29.89106    153.05720     16.95399    573.83284     23.76526      0.00000      0.00000      -999.25      -999.25     19.19000      0.24983      0.12492      -999.25    128.00000      -999.25   1251.33539   3896.31989      -999.25      1.29560     58.00000   5938.99948
       3226.00320     30.16315    151.50500     16.79525    576.12940     21.91411      0.00000      0.00000      -999.25      -999.25     18.29000      0.24983      0.12492      -999.25    128.00000      -999.25   1246.34993   3897.23218      -999.25      1.29510     57.00000   5937.00086
       3226.15560     30.47933    150.08660     16.63275    578.06638     19.50048      0.00000      0.00000      -999.25      -999.25     17.41000      0.24983      0.12492      -999.25    130.00000      -999.25   1251.33539   3901.22652      -999.25      1.29460     57.00000   5934.99934
       3226.30800     30.11440    153.12180     16.52538    575.84522     21.06163      0.00000      0.00000      -999.25      -999.25     19.17000      0.24983      0.12492      -999.25    126.00000      -999.25   1251.33539   3897.78622      -999.25      1.29476     57.00000   5936.00010
       3226.46040     30.55772    145.63310     16.33704    579.16076     18.19537      0.00000      0.00000      -999.25      -999.25     19.76000      0.24983      0.12492      -999.25    128.00000      -999.25   1251.33539   3896.49539      -999.25      1.29580     57.00000   5940.99955
       3226.61280     29.81332    133.27590     16.20046    574.49952     23.19580      0.00000      0.00000      -999.25      -999.25     18.33000      0.49966      0.12492      -999.25    128.00000     33.00000   1251.33539   3902.53186      -999.25      1.29660     57.00000   5944.99969
       3226.76520     28.53774    133.59710     16.02469    579.27474     19.05588      0.00000      0.00000      0.00000      0.00000     18.62000      0.49966      0.12492    131.00000    131.00000      -999.25   1251.33539   3903.50796   3609.00000      1.29566     57.00000   5940.99955
       3226.91760     29.33799    139.47610     15.87776    575.80753     21.34239      0.00000      0.00000      -999.25      -999.25     18.94000      0.49966      0.12492      -999.25    124.00000      -999.25   1251.33539   3894.78829      -999.25      1.29537     57.00000   5940.00024
       3227.07000     30.26961    139.84580     15.69931    583.00937     15.53239      0.00000      0.00000      -999.25      -999.25     18.94000      0.24983      0.12492      -999.25    130.00000      -999.25   1246.34993   3899.73698      -999.25      1.29489     58.00000   5938.00017
       3227.22240     30.73841    138.61310     15.56380    576.26102     22.80274      0.00000      0.00000      -999.25      -999.25     17.75000      0.24983      0.12492      -999.25    131.00000      -999.25   1246.34993   3904.85536      -999.25      1.29525     58.00000   5940.00024
       3227.37480     32.20376    142.32520     15.40859    572.66836     25.51284      0.00000      0.00000      -999.25      -999.25     18.91000      -999.25      -999.25      -999.25    130.00000      -999.25   1246.34993   3898.35477      -999.25      1.29477     58.00000   5938.00017
       3227.52720     32.61541    147.97170     15.19034    576.68783     21.83627      0.00000      0.00000      -999.25      -999.25     19.22000      0.24983      0.12492      -999.25    129.00000      -999.25   1246.34993   3895.98341      -999.25      1.29472     58.00000   5938.00017
       3227.67960     33.99886    149.87150     15.08650    569.31690     28.30171      0.00000      0.00000      -999.25      -999.25     20.30000      0.24983      0.12492      -999.25    130.00000      -999.25   1246.34993   3895.06387      -999.25      1.29399     58.00000   5934.99934
       3227.83200     35.20041    152.31990     14.93604    569.43396     29.02509      0.00000      0.00000      -999.25      -999.25     20.03000      0.24983      0.12492      -999.25    129.00000     30.00000   1246.34993   3892.13991      -999.25      1.29241     58.00000   5927.99982
       3227.98440     34.54845    156.44710     14.76626    569.66434     28.96773      0.00000      0.00000      0.00000      0.00000     18.93000      0.24983      0.12492    130.00000    131.00000      -999.25   1246.34993   3895.58600   3598.00000      1.29364     58.00000   5934.00003
       3228.13680     34.63820    148.17380     14.71311    564.95924     32.56155      0.00000      0.00000      -999.25      -999.25     20.58000      0.24983      0.12492      -999.25    126.00000      -999.25   1246.34993   3895.22631      -999.25      1.29338     58.00000   5932.99927
       3228.28920     34.47261    133.25780     14.47722    570.57199     27.34691      0.00000      0.00000      -999.25      -999.25     18.75000      0.24983      0.12492      -999.25    129.00000      -999.25   1246.34993   3896.54035      -999.25      1.29286     58.00000   5930.99920
       3228.44160     34.43879    135.87540     14.31848    573.54955     24.04525      0.00000      0.00000      -999.25      -999.25     20.86000      0.24983      0.12492      -999.25    127.00000      -999.25   1246.34993   3891.51334      -999.25      1.29238     58.00000   5929.00058
       3228.59400     33.91010    151.32800     14.14225    568.16366     28.76596      0.00000      0.00000      -999.25      -999.25     14.18000      0.49966      0.12492      -999.25    130.00000      -999.25   1246.34993   3901.42232      -999.25      1.29361     59.00000   5934.99934
       3228.74640     32.31941    158.23240     13.99156    573.62186     24.02113      0.00000      0.00000      -999.25      -999.25     20.30000      0.49966      0.12492      -999.25    131.00000     99.00000   1246.34993   3894.99715      -999.25      1.29205     59.00000   5927.99982
       3228.89880     31.85668    155.60690     13.84831    572.08083     25.94543      0.00000      0.00000      -999.25      -999.25     19.76000      0.24983      0.12492      -999.25    131.00000      -999.25   1241.36474   3895.75135      -999.25      1.29327     59.00000   5934.00003
       3229.05120     31.70742    150.85310     13.72209    571.96553     25.57689      0.00000      0.00000      0.00000      0.00000     20.30000      0.24983      0.12492    121.00000    129.00000      -999.25   1246.34993   3891.84548   3602.00000      1.29212     59.00000   5929.00058
       3229.20360     29.82454    147.05940     13.56933    573.53103     24.19512      0.00000      0.00000      -999.25      -999.25     19.76000      0.24983      0.12492      -999.25    130.00000      -999.25   1241.36474   3882.66894      -999.25      1.29271     59.00000   5931.99996
