~VERSION INFORMATION 
VERS  .    2.0                                     :CWLS Log ASCII Standard - VERSION 2.0
WRAP  .    NO                                      :One Line per Depth step
PROD  .    Schlumberger Technology Corp.           :LAS Producer
PROG  .    Horizon LASWriter 10.1.205256.3100      :LAS Program name and version
SOURCE.    Run5_16.5in-Drilling                    :Run&Pass Information
CREA  .    01/07/2021                              :LAS Creation date {MM/DD/YYYY}
#--------------------------------------------------
~WELL INFORMATION 
#MNEM           .UNIT                      DATA            :DESCRIPTION
#----            ------          --------------            -----------------------------
STRT            .m                   2934.91920            :START DEPTH
STOP            .m                   3810.30480            :STOP DEPTH
STEP            .m                       0.1524            :STEP
NULL            .                       -999.25            :NULL VALUE
COMP            .                BP Development Australia Pty Ltd:COMPANY
WELL            .                    Ironbark-1            :WELL NAME
FLD             .                      Ironbark            :FIELD NAME
RIGN            .                    Ocean Apex            :Rig Name
RIGTYP          .                Semi-Submersible          :Rig Type
SON             .                     20AWA0029            :Service Order Number
SRVC            .                  Schlumberger            :SERVICE COMPANY
DATE            .                    11/27/2020            :LOG DATE(Composite Date for Composite LAP) (MM/DD/YYYY)
CLAB            .                       County:            :County Label
CNTY            .                                          :COUNTY
SLAB            .                        State:            :State/Province Label
STAT            .                Western Australia         :STATE or PROVINCE
PROV            .                Western Australia         :STATE or PROVINCE
CTRY            .                     Australia            :COUNTRY
CONT_REGION     .                   Australasia            :Continent Region
SECT            .                                          :Section
TOWN            .                                          :Township
RANG            .                                          :Range
API             .                                          :API NUMBER
UWI             .                     20AWA0029            :UNIQUE WELL ID
LUL             .                 Portside Deck            :Logging Unit Location
LUN             .                       1010979            :Logging Unit Number
LOC             .                      WA-359-P            :FIELD LOCATION
FL1             .                Northing: 7,881,270.990 m :Field Location Line 1
FL2             .                Easting: 402,902.910 m    :Field Location Line 2
LATI            .deg             19° 9' 34.079" S          :LATITUDE
LONG            .deg             116° 4' 35.795" E         :LONGITUDE
PDAT            .                           MSL            :Local Permanent Datum
LMF             .                            DF            :Logging Measured From
APD             .m                     23.85000            :Elevation of Depth Reference (LMF) Above Permanent Datum
EPD             .m                      0.00000            :Elevation of Permanent Datum (PDAT) above Mean Sea Level
EKB             .m                      -999.25            :Elevation of Kelly Bushing Above Permanent Datum
EDF             .m                     23.85000            :Elevation of Drill Floor Above Permanent Datum
EGL             .m                   -300.95000            :Elevation of Ground Level Above Permanent Datum
ECF             .m                      -999.25            :Elevation of Casing Flange above Permanent Datum
#--------------------------------------------------
~CURVE INFORMATION
#MNEM           .UNIT                  API CODE            :DESCRIPTION
#----            ------          --------------            -----------------------------
DEPT            .m                                         :                                                        Depth Index
ROP5            .m/h                                       :(RT)    (DRILLING_SURFACE)      (6in)                   Rate of penetration averaged over the last 5 ft (1.5 m)
GR              .gAPI                                      :(RM)    (ARC9)                  (6in)                   Gamma Ray
BLKP            .m                                         :(RT)    (DRILLING_SURFACE)      (6in)                   Height of block above rig floor
HKLA            .1000 lbf                                  :(RT)    (DRILLING_SURFACE)      (6in)                   Average Hookload
SWOB            .1000 lbf                                  :(RT)    (DRILLING_SURFACE)      (6in)                   Surface Weight On Bit
SHKL            .                                          :(RM)    (ARC9)                  (6in)                   Tool Shock Level
SHKL            .                                          :(RM)    (SONICVISION9)          (6in)                   Tool Shock Level
SHKRSK          .                                          :(RM)    (TELE900)               (6in)                   Shock Risk
SHOCKS_ACC      .                                          :(RM)    (TELE900)               (6in)                   Total Shocks accumulated over tool lifetime
STOR            .1000 ft.lbf                               :(RT)    (DRILLING_SURFACE)      (6in)                   Surface Torque
VIB_LAT         .gn                                        :(RM)    (TELE900)               (6in)                   Transverse RMS Vibration
VIB_X           .gn                                        :(RM)    (TELE900)               (6in)                   RMS Vibration, X-Axis
CRPM            .c/min                                     :(RM)    (TELE900)               (6in)                   Collar Rotational Speed
RPM             .c/min                                     :(RT)    (DRILLING_SURFACE)      (6in)                   Rotational Speed
STICKNSLIP      .c/min                                     :(RM)    (TELE900)               (6in)                   Stick Slip Indicator
TFLO            .gal/min                                   :(RT)    (DRILLING_SURFACE)      (6in)                   Total flow rate of all active pumps
SPPA            .psi                                       :(RT)    (DRILLING_SURFACE)      (6in)                   Standpipe Pressure
TRPM            .c/min                                     :(RM)    (TELE900)               (6in)                   MWD Turbine Rotation Speed
ECD             .g/cm3                                     :(RM)    (ARC9)                  (6in)                   Equivalent Circulating Density
DHAT            .degC                                      :(RM)    (ARC9)                  (6in)                   Downhole Annulus Temperature
DHAP            .psi                                       :(RM)    (ARC9)                  (6in)                   Downhole Annulus Pressure
#-------------------------------------------------------------
#            DEPT         ROP5           GR         BLKP         HKLA         SWOB         SHKL         SHKL       SHKRSK   SHOCKS_ACC         STOR      VIB_LAT        VIB_X         CRPM          RPM   STICKNSLIP         TFLO         SPPA         TRPM          ECD         DHAT         DHAP 
#                  (DRILLING_)       (ARC9)  (DRILLING_)  (DRILLING_)  (DRILLING_)       (ARC9)  (SONICVISI)    (TELE900)    (TELE900)  (DRILLING_)    (TELE900)    (TELE900)    (TELE900)  (DRILLING_)    (TELE900)  (DRILLING_)  (DRILLING_)    (TELE900)       (ARC9)       (ARC9)       (ARC9) 
#                         (RT)         (RM)         (RT)         (RT)         (RT)         (RM)         (RM)         (RM)         (RM)         (RT)         (RM)         (RM)         (RM)         (RT)         (RM)         (RT)         (RT)         (RM)         (RM)         (RM)         (RM) 
#                        (6in)        (6in)        (6in)        (6in)        (6in)        (6in)        (6in)        (6in)        (6in)        (6in)        (6in)        (6in)        (6in)        (6in)        (6in)        (6in)        (6in)        (6in)        (6in)        (6in)        (6in) 
~ASCII
# ...
       3284.82960     21.84559    131.73120     14.11801    590.89111      7.80541      0.00000      0.00000      0.00000      0.00000     20.24000      0.49966      0.12492    140.00000    149.00000    141.00000   1231.39384   3795.21409   3559.00000      1.29010     61.00000   6022.00023
       3284.98200     20.86769    143.53260     13.95140    592.53444      6.85954      0.00000      0.00000      -999.25      -999.25      9.70000      0.49966      0.12492      -999.25    146.00000      -999.25   1231.39384   3819.73562      -999.25      1.28986     61.00000   6020.99947
       3285.13440     22.07466    146.70500     13.77127    586.28874     11.89491      0.00000      0.00000      -999.25      -999.25     17.60000      0.49966      0.12492      -999.25    159.00000      -999.25   1231.39384   3821.34699      -999.25      1.29062     61.00000   6024.99961
       3285.28680     20.77699    141.10740     13.62997    594.96195      4.89582      0.00000      0.00000      -999.25      -999.25     21.71000      0.49966      0.12492      -999.25    147.00000      -999.25   1231.39384   3802.90544      -999.25      1.29099     61.00000   6026.99968
       3285.43920     21.82813    137.04430     13.48556    591.88033      7.26348      0.00000      0.00000      -999.25      -999.25     19.47000      0.49966      0.12492      -999.25    132.00000     99.00000   1231.39384   3802.19620      -999.25      1.29093     61.00000   6026.99968
       3285.59160     22.36542    132.99570     13.34138    585.93314     12.45489      0.00000      0.00000      0.00000      0.00000     17.13000      0.49966      0.12492    136.00000    155.00000      -999.25   1231.39384   3805.73512   3578.00000      1.29133     61.00000   6028.99975
       3285.74400     22.43236    128.94570     13.15419    588.58243     10.15112      0.00000      0.00000      -999.25      -999.25     20.04000      0.49966      0.12492      -999.25    153.00000      -999.25   1231.39384   3807.47703      -999.25      1.29039     61.00000   6024.99961
       3285.89640     20.28317    132.34470     13.03036    588.57868     10.58621      0.00000      0.00000      -999.25      -999.25      8.82000      0.49966      0.12492      -999.25    151.00000      -999.25   1231.39384   3814.53456      -999.25      1.29118     61.00000   6028.99975
       3286.04880     19.69245    132.67820     12.85380    584.10418     15.04464      0.00000      0.00000      -999.25      -999.25      9.00000      0.49966      0.12492      -999.25    155.00000      -999.25   1231.39384   3809.30305      -999.25      1.29114     61.00000   6028.99975
       3286.20120     19.35107    132.21770     12.66949    586.48606     12.66855      0.00000      0.00000      0.00000      0.00000     16.54000      0.49966      0.12492    145.00000    154.00000    129.00000   1231.39384   3801.47972   3575.00000      1.29041     61.00000   6026.00037
       3286.35360     19.83383    138.19280     12.56483    592.01701      7.50480      0.00000      0.00000      -999.25      -999.25     12.97000      0.37475      0.12492      -999.25    151.00000      -999.25   1231.39384   3814.46640      -999.25      1.29058     61.00000   6026.99968
       3286.50600     20.68754    137.40870     12.37601    593.33295      5.36473      0.00000      0.00000      -999.25      -999.25     12.70000      0.49966      0.12492      -999.25    161.00000      -999.25   1231.39384   3806.35298      -999.25      1.29118     61.00000   6030.00051
       3286.65840     21.14520    127.87060     12.24588    589.12168     10.05583      0.00000      0.00000      -999.25      -999.25     11.16000      0.49966      0.12492      -999.25    157.00000      -999.25   1231.39384   3810.39664      -999.25      1.29131     61.00000   6030.99982
       3286.81080     23.03954    123.31370     12.08618    583.21616     15.76734      0.00000      0.00000      -999.25      -999.25     14.75000      0.49966      0.12492      -999.25    151.00000    144.00000   1231.39384   3803.92360      -999.25      1.29232     61.00000   6035.99927
       3286.96320     21.63071    125.81890     11.93113    588.93098     10.56336      0.00000      0.00000      0.00000      0.00000     13.86000      0.49966      0.12492    157.00000    153.00000      -999.25   1231.39384   3804.45589   3576.00000      1.29206     62.00000   6034.99996
       3287.11560     21.66286    127.62450     11.78074    588.16708     10.62610      0.00000      0.00000      -999.25      -999.25     19.77000      0.49966      0.12492      -999.25    149.00000      -999.25   1231.39384   3792.25387      -999.25      1.29135     62.00000   6032.00058
       3287.26800     21.43411    128.62130     11.58773    589.45193      8.91705      0.00000      0.00000      -999.25      -999.25     20.07000      0.49966      0.12492      -999.25    157.00000      -999.25   1231.39384   3801.88437      -999.25      1.29151     62.00000   6032.99989
       3287.42040     24.12024    131.83590     11.49961    582.14978     16.71264      0.00000      0.00000      -999.25      -999.25     24.26000      0.49966      0.12492      -999.25    133.00000      -999.25   1231.39384   3790.59173      -999.25      1.29232     62.00000   6037.00003
       3287.57280     24.43952    134.82300     11.31242    586.36767     12.86800      0.00000      0.00000      -999.25      -999.25     17.27000      0.49966      0.12492      -999.25    157.00000      -999.25   1231.39384   3790.47425      -999.25      1.29162     62.00000   6033.99920
       3287.72520     25.24029    134.47370     11.16483    586.68712     11.95086      0.00000      0.00000      -999.25      -999.25     19.75000      0.49966      0.12492      -999.25    148.00000     51.00000   1231.39384   3786.37404      -999.25      1.29197     62.00000   6035.99927
       3287.87760     26.25519    134.21640     11.01848    591.15831      8.77282      0.00000      0.00000      0.00000      0.00000     13.37000      0.49966      0.12492    141.00000    163.00000      -999.25   1231.39384   3795.44180   3574.00000      1.29234     62.00000   6037.99934
       3288.03000     26.17376    136.93940     10.86328    590.61686      7.72038      0.00000      0.00000      -999.25      -999.25     19.22000      0.49966      0.12492      -999.25    146.00000      -999.25   1231.39384   3785.58938      -999.25      1.29077     62.00000   6030.99982
       3288.18240     26.63586    139.43280     10.70373    589.34236      9.49629      0.00000      0.00000      -999.25      -999.25     20.88000      0.49966      0.12492      -999.25    149.00000      -999.25   1231.39384   3782.59870      -999.25      1.29222     62.00000   6037.99934
       3288.33480     26.76481    139.80380     10.55015    586.53698     12.18499      0.00000      0.00000      -999.25      -999.25     20.03000      0.24983      0.12492      -999.25    148.00000      -999.25   1231.39384   3785.69526      -999.25      1.29153     62.00000   6034.99996
       3288.48720     29.12561    142.63040     10.38269    588.58089     10.44148      0.00000      0.00000      -999.25      -999.25     20.58000      0.49966      0.12492      -999.25    148.00000      -999.25   1231.39384   3786.11877      -999.25      1.29145     62.00000   6034.99996
       3288.63960     28.76049    147.22110     10.28502    582.19652     16.91884      0.00000      0.00000      -999.25      -999.25     16.55000      0.49966      0.12492      -999.25    158.00000      -999.25   1231.39384   3793.25753      -999.25      1.29203     62.00000   6037.99934
       3288.79200     28.45809    147.48090     10.09961    589.47266      9.85000      0.00000      0.00000      -999.25      -999.25     14.29000      0.49966      0.12492      -999.25    161.00000    102.00000   1231.39384   3806.57924      -999.25      1.29158     62.00000   6035.99927
       3288.94440     27.80968    139.33180      9.94061    591.75268      6.89066      0.00000      0.00000      0.00000      0.00000     21.48000      0.49966      0.12492     96.00000    151.00000      -999.25   1231.39384   3785.90992   3558.00000      1.29105     62.00000   6033.99920
